stop_id,stop_name,arrival_time,stop_sequence,direction_id,route_short_name,route_long_name,route_type
2035,Château de Vincennes,50460,1,0,1,(CHATEAU DE VINCENNES <-> LA DEFENSE) - Aller,1
2067,Bérault,50580,2,0,1,(CHATEAU DE VINCENNES <-> LA DEFENSE) - Aller,1
1725,Saint-Mandé,50640,3,0,1,(CHATEAU DE VINCENNES <-> LA DEFENSE) - Aller,1
1751,Porte de Vincennes,50760,4,0,1,(CHATEAU DE VINCENNES <-> LA DEFENSE) - Aller,1
1832,Nation,50820,5,0,1,(CHATEAU DE VINCENNES <-> LA DEFENSE) - Aller,1
1698,Reuilly-Diderot,50940,6,0,1,(CHATEAU DE VINCENNES <-> LA DEFENSE) - Aller,1
1955,Gare de Lyon,51060,7,0,1,(CHATEAU DE VINCENNES <-> LA DEFENSE) - Aller,1
2062,Bastille,51180,8,0,1,(CHATEAU DE VINCENNES <-> LA DEFENSE) - Aller,1
1642,Saint-Paul (Le Marais),51300,9,0,1,(CHATEAU DE VINCENNES <-> LA DEFENSE) - Aller,1
1892,Hôtel de Ville,51420,10,0,1,(CHATEAU DE VINCENNES <-> LA DEFENSE) - Aller,1
2036,Châtelet,51480,11,0,1,(CHATEAU DE VINCENNES <-> LA DEFENSE) - Aller,1
1864,Louvre-Rivoli,51540,12,0,1,(CHATEAU DE VINCENNES <-> LA DEFENSE) - Aller,1
1773,Palais-Royal (Musée du Louvre),51600,13,0,1,(CHATEAU DE VINCENNES <-> LA DEFENSE) - Aller,1
1688,Tuileries,51660,14,0,1,(CHATEAU DE VINCENNES <-> LA DEFENSE) - Aller,1
1980,Concorde,51780,15,0,1,(CHATEAU DE VINCENNES <-> LA DEFENSE) - Aller,1
2083,Champs-Elysées-Clémenceau,51840,16,0,1,(CHATEAU DE VINCENNES <-> LA DEFENSE) - Aller,1
1945,Franklin-Roosevelt,51960,17,0,1,(CHATEAU DE VINCENNES <-> LA DEFENSE) - Aller,1
1961,George V,52020,18,0,1,(CHATEAU DE VINCENNES <-> LA DEFENSE) - Aller,1
2028,Charles de Gaulle-Etoile,52080,19,0,1,(CHATEAU DE VINCENNES <-> LA DEFENSE) - Aller,1
2048,Argentine,52200,20,0,1,(CHATEAU DE VINCENNES <-> LA DEFENSE) - Aller,1
1755,Porte Maillot,52260,21,0,1,(CHATEAU DE VINCENNES <-> LA DEFENSE) - Aller,1
1856,Les Sablons (Jardin d'acclimatation),52380,22,0,1,(CHATEAU DE VINCENNES <-> LA DEFENSE) - Aller,1
1803,Pont de Neuilly,52500,23,0,1,(CHATEAU DE VINCENNES <-> LA DEFENSE) - Aller,1
1933,Esplanade de la Défense,52560,24,0,1,(CHATEAU DE VINCENNES <-> LA DEFENSE) - Aller,1
1887,La Défense (Grande Arche),52740,25,0,1,(CHATEAU DE VINCENNES <-> LA DEFENSE) - Aller,1
1887,La Défense (Grande Arche),52740,1,1,1,(CHATEAU DE VINCENNES <-> LA DEFENSE) - Retour,1
1933,Esplanade de la Défense,52560,2,1,1,(CHATEAU DE VINCENNES <-> LA DEFENSE) - Retour,1
1803,Pont de Neuilly,52500,3,1,1,(CHATEAU DE VINCENNES <-> LA DEFENSE) - Retour,1
1856,Les Sablons (Jardin d'acclimatation),52380,4,1,1,(CHATEAU DE VINCENNES <-> LA DEFENSE) - Retour,1
1755,Porte Maillot,52260,5,1,1,(CHATEAU DE VINCENNES <-> LA DEFENSE) - Retour,1
2048,Argentine,52200,6,1,1,(CHATEAU DE VINCENNES <-> LA DEFENSE) - Retour,1
2028,Charles de Gaulle-Etoile,52080,7,1,1,(CHATEAU DE VINCENNES <-> LA DEFENSE) - Retour,1
1961,George V,52020,8,1,1,(CHATEAU DE VINCENNES <-> LA DEFENSE) - Retour,1
1945,Franklin-Roosevelt,51960,9,1,1,(CHATEAU DE VINCENNES <-> LA DEFENSE) - Retour,1
2083,Champs-Elysées-Clémenceau,51840,10,1,1,(CHATEAU DE VINCENNES <-> LA DEFENSE) - Retour,1
1980,Concorde,51780,11,1,1,(CHATEAU DE VINCENNES <-> LA DEFENSE) - Retour,1
1688,Tuileries,51660,12,1,1,(CHATEAU DE VINCENNES <-> LA DEFENSE) - Retour,1
1773,Palais-Royal (Musée du Louvre),51600,13,1,1,(CHATEAU DE VINCENNES <-> LA DEFENSE) - Retour,1
1864,Louvre-Rivoli,51540,14,1,1,(CHATEAU DE VINCENNES <-> LA DEFENSE) - Retour,1
2036,Châtelet,51480,15,1,1,(CHATEAU DE VINCENNES <-> LA DEFENSE) - Retour,1
1892,Hôtel de Ville,51420,16,1,1,(CHATEAU DE VINCENNES <-> LA DEFENSE) - Retour,1
1642,Saint-Paul (Le Marais),51300,17,1,1,(CHATEAU DE VINCENNES <-> LA DEFENSE) - Retour,1
2062,Bastille,51180,18,1,1,(CHATEAU DE VINCENNES <-> LA DEFENSE) - Retour,1
1955,Gare de Lyon,51060,19,1,1,(CHATEAU DE VINCENNES <-> LA DEFENSE) - Retour,1
1698,Reuilly-Diderot,50940,20,1,1,(CHATEAU DE VINCENNES <-> LA DEFENSE) - Retour,1
1832,Nation,50820,21,1,1,(CHATEAU DE VINCENNES <-> LA DEFENSE) - Retour,1
1751,Porte de Vincennes,50760,22,1,1,(CHATEAU DE VINCENNES <-> LA DEFENSE) - Retour,1
1725,Saint-Mandé,50640,23,1,1,(CHATEAU DE VINCENNES <-> LA DEFENSE) - Retour,1
2067,Bérault,50580,24,1,1,(CHATEAU DE VINCENNES <-> LA DEFENSE) - Retour,1
2035,Château de Vincennes,50460,25,1,1,(CHATEAU DE VINCENNES <-> LA DEFENSE) - Retour,1
1833,Nation,36420,1,0,2,(NATION <-> PORTE DAUPHINE) - Aller,1
2058,Avron,36480,2,0,2,(NATION <-> PORTE DAUPHINE) - Aller,1
2041,Alexandre-Dumas,36540,3,0,2,(NATION <-> PORTE DAUPHINE) - Aller,1
1788,Philippe Auguste,36660,4,0,2,(NATION <-> PORTE DAUPHINE) - Aller,1
1784,Père-Lachaise,36720,5,0,2,(NATION <-> PORTE DAUPHINE) - Aller,1
1812,Ménilmontant,36780,6,0,2,(NATION <-> PORTE DAUPHINE) - Aller,1
2079,Couronnes,36840,7,0,2,(NATION <-> PORTE DAUPHINE) - Aller,1
2087,Belleville,36960,8,0,2,(NATION <-> PORTE DAUPHINE) - Aller,1
1978,Colonel Fabien,37020,9,0,2,(NATION <-> PORTE DAUPHINE) - Aller,1
1900,Jaurès,37080,10,0,2,(NATION <-> PORTE DAUPHINE) - Aller,1
1674,Stalingrad,37200,11,0,2,(NATION <-> PORTE DAUPHINE) - Aller,1
1910,La Chapelle,37260,12,0,2,(NATION <-> PORTE DAUPHINE) - Aller,1
2086,Barbès-Rochechouart,37380,13,0,2,(NATION <-> PORTE DAUPHINE) - Aller,1
2046,Anvers,37440,14,0,2,(NATION <-> PORTE DAUPHINE) - Aller,1
1791,Pigalle,37500,15,0,2,(NATION <-> PORTE DAUPHINE) - Aller,1
2071,Blanche,37560,16,0,2,(NATION <-> PORTE DAUPHINE) - Aller,1
1795,Place de Clichy,37680,17,0,2,(NATION <-> PORTE DAUPHINE) - Aller,1
1707,Rome,37740,18,0,2,(NATION <-> PORTE DAUPHINE) - Aller,1
1629,Villiers,37860,19,0,2,(NATION <-> PORTE DAUPHINE) - Aller,1
1822,Monceau,37920,20,0,2,(NATION <-> PORTE DAUPHINE) - Aller,1
1989,Courcelles,37980,21,0,2,(NATION <-> PORTE DAUPHINE) - Aller,1
1684,Ternes,38040,22,0,2,(NATION <-> PORTE DAUPHINE) - Aller,1
2029,Charles de Gaulle-Etoile,38160,23,0,2,(NATION <-> PORTE DAUPHINE) - Aller,1
1694,Victor Hugo,38220,24,0,2,(NATION <-> PORTE DAUPHINE) - Aller,1
1736,Porte Dauphine (Maréchal de Lattre de Tassigny),38400,25,0,2,(NATION <-> PORTE DAUPHINE) - Aller,1
1736,Porte Dauphine (Maréchal de Lattre de Tassigny),38400,1,1,2,(NATION <-> PORTE DAUPHINE) - Retour,1
1694,Victor Hugo,38580,2,1,2,(NATION <-> PORTE DAUPHINE) - Retour,1
2029,Charles de Gaulle-Etoile,38640,3,1,2,(NATION <-> PORTE DAUPHINE) - Retour,1
1684,Ternes,38760,4,1,2,(NATION <-> PORTE DAUPHINE) - Retour,1
1989,Courcelles,38820,5,1,2,(NATION <-> PORTE DAUPHINE) - Retour,1
1822,Monceau,38880,6,1,2,(NATION <-> PORTE DAUPHINE) - Retour,1
1629,Villiers,38940,7,1,2,(NATION <-> PORTE DAUPHINE) - Retour,1
1707,Rome,39060,8,1,2,(NATION <-> PORTE DAUPHINE) - Retour,1
1795,Place de Clichy,39120,9,1,2,(NATION <-> PORTE DAUPHINE) - Retour,1
2071,Blanche,39240,10,1,2,(NATION <-> PORTE DAUPHINE) - Retour,1
1791,Pigalle,39300,11,1,2,(NATION <-> PORTE DAUPHINE) - Retour,1
2046,Anvers,39360,12,1,2,(NATION <-> PORTE DAUPHINE) - Retour,1
2086,Barbès-Rochechouart,39420,13,1,2,(NATION <-> PORTE DAUPHINE) - Retour,1
1910,La Chapelle,39540,14,1,2,(NATION <-> PORTE DAUPHINE) - Retour,1
1674,Stalingrad,39600,15,1,2,(NATION <-> PORTE DAUPHINE) - Retour,1
1900,Jaurès,39720,16,1,2,(NATION <-> PORTE DAUPHINE) - Retour,1
1978,Colonel Fabien,39780,17,1,2,(NATION <-> PORTE DAUPHINE) - Retour,1
2087,Belleville,39840,18,1,2,(NATION <-> PORTE DAUPHINE) - Retour,1
2079,Couronnes,39960,19,1,2,(NATION <-> PORTE DAUPHINE) - Retour,1
1812,Ménilmontant,40020,20,1,2,(NATION <-> PORTE DAUPHINE) - Retour,1
1784,Père-Lachaise,40080,21,1,2,(NATION <-> PORTE DAUPHINE) - Retour,1
1788,Philippe Auguste,40140,22,1,2,(NATION <-> PORTE DAUPHINE) - Retour,1
2041,Alexandre-Dumas,40260,23,1,2,(NATION <-> PORTE DAUPHINE) - Retour,1
2058,Avron,40320,24,1,2,(NATION <-> PORTE DAUPHINE) - Retour,1
1833,Nation,40380,25,1,2,(NATION <-> PORTE DAUPHINE) - Retour,1
1949,Gallieni (Parc de Bagnolet),56460,1,0,3,(GALLIENI <-> PONT DE LEVALLOIS - BECON) - Aller,1
1737,Porte de Bagnolet,56580,2,0,3,(GALLIENI <-> PONT DE LEVALLOIS - BECON) - Aller,1
1950,Gambetta,56640,3,0,3,(GALLIENI <-> PONT DE LEVALLOIS - BECON) - Aller,1
1785,Père-Lachaise,56760,4,0,3,(GALLIENI <-> PONT DE LEVALLOIS - BECON) - Aller,1
1728,Rue Saint-Maur,56820,5,0,3,(GALLIENI <-> PONT DE LEVALLOIS - BECON) - Aller,1
1779,Parmentier,56880,6,0,3,(GALLIENI <-> PONT DE LEVALLOIS - BECON) - Aller,1
1766,République,57000,7,0,3,(GALLIENI <-> PONT DE LEVALLOIS - BECON) - Aller,1
1683,Temple,57060,8,0,3,(GALLIENI <-> PONT DE LEVALLOIS - BECON) - Aller,1
2050,Arts-et-Métiers,57120,9,0,3,(GALLIENI <-> PONT DE LEVALLOIS - BECON) - Aller,1
1765,Réaumur-Sébastopol,57180,10,0,3,(GALLIENI <-> PONT DE LEVALLOIS - BECON) - Aller,1
1662,Sentier,57240,11,0,3,(GALLIENI <-> PONT DE LEVALLOIS - BECON) - Aller,1
2007,Bourse,57300,12,0,3,(GALLIENI <-> PONT DE LEVALLOIS - BECON) - Aller,1
1760,Quatre Septembre,57420,13,0,3,(GALLIENI <-> PONT DE LEVALLOIS - BECON) - Aller,1
1846,Opéra,57480,14,0,3,(GALLIENI <-> PONT DE LEVALLOIS - BECON) - Aller,1
1889,Havre-Caumartin,57540,15,0,3,(GALLIENI <-> PONT DE LEVALLOIS - BECON) - Aller,1
1722,Saint-Lazare,57600,16,0,3,(GALLIENI <-> PONT DE LEVALLOIS - BECON) - Aller,1
1935,Europe,57720,17,0,3,(GALLIENI <-> PONT DE LEVALLOIS - BECON) - Aller,1
1630,Villiers,57780,18,0,3,(GALLIENI <-> PONT DE LEVALLOIS - BECON) - Aller,1
1881,Malesherbes,57900,19,0,3,(GALLIENI <-> PONT DE LEVALLOIS - BECON) - Aller,1
1634,Wagram,57960,20,0,3,(GALLIENI <-> PONT DE LEVALLOIS - BECON) - Aller,1
1786,Pereire,58020,21,0,3,(GALLIENI <-> PONT DE LEVALLOIS - BECON) - Aller,1
1738,Porte de Champerret,58080,22,0,3,(GALLIENI <-> PONT DE LEVALLOIS - BECON) - Aller,1
1862,Louise Michel,58140,23,0,3,(GALLIENI <-> PONT DE LEVALLOIS - BECON) - Aller,1
2044,Anatole-France,58260,24,0,3,(GALLIENI <-> PONT DE LEVALLOIS - BECON) - Aller,1
1802,Pont de Levallois-Bécon,58320,25,0,3,(GALLIENI <-> PONT DE LEVALLOIS - BECON) - Aller,1
1802,Pont de Levallois-Bécon,58320,1,1,3,(GALLIENI <-> PONT DE LEVALLOIS - BECON) - Retour,1
2044,Anatole-France,58380,2,1,3,(GALLIENI <-> PONT DE LEVALLOIS - BECON) - Retour,1
1862,Louise Michel,58500,3,1,3,(GALLIENI <-> PONT DE LEVALLOIS - BECON) - Retour,1
1738,Porte de Champerret,58560,4,1,3,(GALLIENI <-> PONT DE LEVALLOIS - BECON) - Retour,1
1786,Pereire,58620,5,1,3,(GALLIENI <-> PONT DE LEVALLOIS - BECON) - Retour,1
1634,Wagram,58680,6,1,3,(GALLIENI <-> PONT DE LEVALLOIS - BECON) - Retour,1
1881,Malesherbes,58740,7,1,3,(GALLIENI <-> PONT DE LEVALLOIS - BECON) - Retour,1
1630,Villiers,58860,8,1,3,(GALLIENI <-> PONT DE LEVALLOIS - BECON) - Retour,1
1935,Europe,58920,9,1,3,(GALLIENI <-> PONT DE LEVALLOIS - BECON) - Retour,1
1722,Saint-Lazare,59040,10,1,3,(GALLIENI <-> PONT DE LEVALLOIS - BECON) - Retour,1
1889,Havre-Caumartin,59100,11,1,3,(GALLIENI <-> PONT DE LEVALLOIS - BECON) - Retour,1
1846,Opéra,59160,12,1,3,(GALLIENI <-> PONT DE LEVALLOIS - BECON) - Retour,1
1760,Quatre Septembre,59220,13,1,3,(GALLIENI <-> PONT DE LEVALLOIS - BECON) - Retour,1
2007,Bourse,59340,14,1,3,(GALLIENI <-> PONT DE LEVALLOIS - BECON) - Retour,1
1662,Sentier,59400,15,1,3,(GALLIENI <-> PONT DE LEVALLOIS - BECON) - Retour,1
1765,Réaumur-Sébastopol,59460,16,1,3,(GALLIENI <-> PONT DE LEVALLOIS - BECON) - Retour,1
2050,Arts-et-Métiers,59520,17,1,3,(GALLIENI <-> PONT DE LEVALLOIS - BECON) - Retour,1
1683,Temple,59580,18,1,3,(GALLIENI <-> PONT DE LEVALLOIS - BECON) - Retour,1
1766,République,59640,19,1,3,(GALLIENI <-> PONT DE LEVALLOIS - BECON) - Retour,1
1779,Parmentier,59760,20,1,3,(GALLIENI <-> PONT DE LEVALLOIS - BECON) - Retour,1
1728,Rue Saint-Maur,59820,21,1,3,(GALLIENI <-> PONT DE LEVALLOIS - BECON) - Retour,1
1785,Père-Lachaise,59880,22,1,3,(GALLIENI <-> PONT DE LEVALLOIS - BECON) - Retour,1
1950,Gambetta,60000,23,1,3,(GALLIENI <-> PONT DE LEVALLOIS - BECON) - Retour,1
1737,Porte de Bagnolet,60060,24,1,3,(GALLIENI <-> PONT DE LEVALLOIS - BECON) - Retour,1
1949,Gallieni (Parc de Bagnolet),60180,25,1,3,(GALLIENI <-> PONT DE LEVALLOIS - BECON) - Retour,1
1752,Porte des Lilas,59460,1,0,3B,(PORTE DES LILAS <-> GAMBETTA) - Aller,1
1718,Saint-Fargeau,59580,2,0,3B,(PORTE DES LILAS <-> GAMBETTA) - Aller,1
1783,Pelleport,59640,3,0,3B,(PORTE DES LILAS <-> GAMBETTA) - Aller,1
1659,Gambetta,59700,4,0,3B,(PORTE DES LILAS <-> GAMBETTA) - Aller,1
1659,Gambetta,59700,1,1,3B,(PORTE DES LILAS <-> GAMBETTA) - Retour,1
1783,Pelleport,59760,2,1,3B,(PORTE DES LILAS <-> GAMBETTA) - Retour,1
1718,Saint-Fargeau,59820,3,1,3B,(PORTE DES LILAS <-> GAMBETTA) - Retour,1
1752,Porte des Lilas,59940,4,1,3B,(PORTE DES LILAS <-> GAMBETTA) - Retour,1
1742,Porte de Clignancourt,53100,1,0,4,(PORTE DE CLIGNANCOURT <-> MAIRIE DE MONTROUGE) - Aller,1
1668,Simplon,53160,2,0,4,(PORTE DE CLIGNANCOURT <-> MAIRIE DE MONTROUGE) - Aller,1
1655,Marcadet-Poissonniers,53220,3,0,4,(PORTE DE CLIGNANCOURT <-> MAIRIE DE MONTROUGE) - Aller,1
2033,Château Rouge,53280,4,0,4,(PORTE DE CLIGNANCOURT <-> MAIRIE DE MONTROUGE) - Aller,1
2061,Barbès-Rochechouart,53340,5,0,4,(PORTE DE CLIGNANCOURT <-> MAIRIE DE MONTROUGE) - Aller,1
1957,Gare du Nord,53460,6,0,4,(PORTE DE CLIGNANCOURT <-> MAIRIE DE MONTROUGE) - Aller,1
1953,Gare de l'Est (Verdun),53520,7,0,4,(PORTE DE CLIGNANCOURT <-> MAIRIE DE MONTROUGE) - Aller,1
2034,Château d'Eau,53580,8,0,4,(PORTE DE CLIGNANCOURT <-> MAIRIE DE MONTROUGE) - Aller,1
1677,Strasbourg-Saint-Denis,53640,9,0,4,(PORTE DE CLIGNANCOURT <-> MAIRIE DE MONTROUGE) - Aller,1
1764,Réaumur-Sébastopol,53700,10,0,4,(PORTE DE CLIGNANCOURT <-> MAIRIE DE MONTROUGE) - Aller,1
1934,Etienne Marcel,53760,11,0,4,(PORTE DE CLIGNANCOURT <-> MAIRIE DE MONTROUGE) - Aller,1
1855,Les Halles,53880,12,0,4,(PORTE DE CLIGNANCOURT <-> MAIRIE DE MONTROUGE) - Aller,1
1964,Châtelet,53940,13,0,4,(PORTE DE CLIGNANCOURT <-> MAIRIE DE MONTROUGE) - Aller,1
1975,Cité,54000,14,0,4,(PORTE DE CLIGNANCOURT <-> MAIRIE DE MONTROUGE) - Aller,1
1729,Saint-Michel,54060,15,0,4,(PORTE DE CLIGNANCOURT <-> MAIRIE DE MONTROUGE) - Aller,1
1845,Odéon,54120,16,0,4,(PORTE DE CLIGNANCOURT <-> MAIRIE DE MONTROUGE) - Aller,1
1721,Saint-Germain des Prés,54180,17,0,4,(PORTE DE CLIGNANCOURT <-> MAIRIE DE MONTROUGE) - Aller,1
1733,Saint-Sulpice,54240,18,0,4,(PORTE DE CLIGNANCOURT <-> MAIRIE DE MONTROUGE) - Aller,1
1731,Saint-Placide,54360,19,0,4,(PORTE DE CLIGNANCOURT <-> MAIRIE DE MONTROUGE) - Aller,1
1824,Montparnasse-Bienvenue,54420,20,0,4,(PORTE DE CLIGNANCOURT <-> MAIRIE DE MONTROUGE) - Aller,1
1692,Vavin,54480,21,0,4,(PORTE DE CLIGNANCOURT <-> MAIRIE DE MONTROUGE) - Aller,1
1645,Raspail,54540,22,0,4,(PORTE DE CLIGNANCOURT <-> MAIRIE DE MONTROUGE) - Aller,1
1996,Denfert-Rochereau,54600,23,0,4,(PORTE DE CLIGNANCOURT <-> MAIRIE DE MONTROUGE) - Aller,1
1828,Mouton-Duvernet,54720,24,0,4,(PORTE DE CLIGNANCOURT <-> MAIRIE DE MONTROUGE) - Aller,1
2040,Alésia,54780,25,0,4,(PORTE DE CLIGNANCOURT <-> MAIRIE DE MONTROUGE) - Aller,1
1735,Porte d'Orléans (Général Leclerc),54840,26,0,4,(PORTE DE CLIGNANCOURT <-> MAIRIE DE MONTROUGE) - Aller,1
4028973,Mairie de Montrouge,54960,27,0,4,(PORTE DE CLIGNANCOURT <-> MAIRIE DE MONTROUGE) - Aller,1
40289733,Barbara,55020,28,0,4,(PORTE DE CLIGNANCOURT <-> MAIRIE DE MONTROUGE) - Aller,1
40289734,Bagneux Lucie Aubrac,55200,29,0,4,(PORTE DE CLIGNANCOURT <-> MAIRIE DE MONTROUGE) - Aller,1
40289734,Bagneux Lucie Aubrac,55200,1,1,4,(PORTE DE CLIGNANCOURT <-> MAIRIE DE MONTROUGE) - Retour,1
40289733,Barbara,55380,2,1,4,(PORTE DE CLIGNANCOURT <-> MAIRIE DE MONTROUGE) - Retour,1
4028973,Mairie de Montrouge,55201,3,1,4,(PORTE DE CLIGNANCOURT <-> MAIRIE DE MONTROUGE) - Retour,1
1735,Porte d'Orléans (Général Leclerc),55321,4,1,4,(PORTE DE CLIGNANCOURT <-> MAIRIE DE MONTROUGE) - Retour,1
2040,Alésia,55202,5,1,4,(PORTE DE CLIGNANCOURT <-> MAIRIE DE MONTROUGE) - Retour,1
1828,Mouton-Duvernet,55262,6,1,4,(PORTE DE CLIGNANCOURT <-> MAIRIE DE MONTROUGE) - Retour,1
1996,Denfert-Rochereau,55203,7,1,4,(PORTE DE CLIGNANCOURT <-> MAIRIE DE MONTROUGE) - Retour,1
1645,Raspail,55263,8,1,4,(PORTE DE CLIGNANCOURT <-> MAIRIE DE MONTROUGE) - Retour,1
1692,Vavin,55204,9,1,4,(PORTE DE CLIGNANCOURT <-> MAIRIE DE MONTROUGE) - Retour,1
1824,Montparnasse-Bienvenue,55264,10,1,4,(PORTE DE CLIGNANCOURT <-> MAIRIE DE MONTROUGE) - Retour,1
1731,Saint-Placide,55205,11,1,4,(PORTE DE CLIGNANCOURT <-> MAIRIE DE MONTROUGE) - Retour,1
1733,Saint-Sulpice,55325,12,1,4,(PORTE DE CLIGNANCOURT <-> MAIRIE DE MONTROUGE) - Retour,1
1721,Saint-Germain des Prés,55206,13,1,4,(PORTE DE CLIGNANCOURT <-> MAIRIE DE MONTROUGE) - Retour,1
1845,Odéon,55266,14,1,4,(PORTE DE CLIGNANCOURT <-> MAIRIE DE MONTROUGE) - Retour,1
1729,Saint-Michel,55207,15,1,4,(PORTE DE CLIGNANCOURT <-> MAIRIE DE MONTROUGE) - Retour,1
1975,Cité,55267,16,1,4,(PORTE DE CLIGNANCOURT <-> MAIRIE DE MONTROUGE) - Retour,1
1964,Châtelet,55208,17,1,4,(PORTE DE CLIGNANCOURT <-> MAIRIE DE MONTROUGE) - Retour,1
1855,Les Halles,55268,18,1,4,(PORTE DE CLIGNANCOURT <-> MAIRIE DE MONTROUGE) - Retour,1
1934,Etienne Marcel,55209,19,1,4,(PORTE DE CLIGNANCOURT <-> MAIRIE DE MONTROUGE) - Retour,1
1764,Réaumur-Sébastopol,55269,20,1,4,(PORTE DE CLIGNANCOURT <-> MAIRIE DE MONTROUGE) - Retour,1
1677,Strasbourg-Saint-Denis,55210,21,1,4,(PORTE DE CLIGNANCOURT <-> MAIRIE DE MONTROUGE) - Retour,1
2034,Château d'Eau,55270,22,1,4,(PORTE DE CLIGNANCOURT <-> MAIRIE DE MONTROUGE) - Retour,1
1953,Gare de l'Est (Verdun),55211,23,1,4,(PORTE DE CLIGNANCOURT <-> MAIRIE DE MONTROUGE) - Retour,1
1957,Gare du Nord,55271,24,1,4,(PORTE DE CLIGNANCOURT <-> MAIRIE DE MONTROUGE) - Retour,1
2061,Barbès-Rochechouart,55212,25,1,4,(PORTE DE CLIGNANCOURT <-> MAIRIE DE MONTROUGE) - Retour,1
2033,Château Rouge,55272,26,1,4,(PORTE DE CLIGNANCOURT <-> MAIRIE DE MONTROUGE) - Retour,1
1655,Marcadet-Poissonniers,55213,27,1,4,(PORTE DE CLIGNANCOURT <-> MAIRIE DE MONTROUGE) - Retour,1
1668,Simplon,55273,28,1,4,(PORTE DE CLIGNANCOURT <-> MAIRIE DE MONTROUGE) - Retour,1
1742,Porte de Clignancourt,55214,29,1,4,(PORTE DE CLIGNANCOURT <-> MAIRIE DE MONTROUGE) - Retour,1
2089,Bobigny-Pablo-Picasso,50160,1,0,5,(BOBIGNY - PABLO PICASSO <-> PLACE D'ITALIE) - Aller,1
2072,Bobigny-Pantin (Raymond Queneau),50340,2,0,5,(BOBIGNY - PABLO PICASSO <-> PLACE D'ITALIE) - Aller,1
1932,Eglise de Pantin,50460,3,0,5,(BOBIGNY - PABLO PICASSO <-> PLACE D'ITALIE) - Aller,1
1891,Hoche,50520,4,0,5,(BOBIGNY - PABLO PICASSO <-> PLACE D'ITALIE) - Aller,1
1746,Porte de Pantin,50640,5,0,5,(BOBIGNY - PABLO PICASSO <-> PLACE D'ITALIE) - Aller,1
1772,Ourcq,50700,6,0,5,(BOBIGNY - PABLO PICASSO <-> PLACE D'ITALIE) - Aller,1
1922,Laumière,50820,7,0,5,(BOBIGNY - PABLO PICASSO <-> PLACE D'ITALIE) - Aller,1
1901,Jaurès,50880,8,0,5,(BOBIGNY - PABLO PICASSO <-> PLACE D'ITALIE) - Aller,1
1675,Stalingrad,50940,9,0,5,(BOBIGNY - PABLO PICASSO <-> PLACE D'ITALIE) - Aller,1
1958,Gare du Nord,51060,10,0,5,(BOBIGNY - PABLO PICASSO <-> PLACE D'ITALIE) - Aller,1
2076,Gare de l'Est (Verdun),51180,11,0,5,(BOBIGNY - PABLO PICASSO <-> PLACE D'ITALIE) - Aller,1
1898,Jacques-Bonsergent,51300,12,0,5,(BOBIGNY - PABLO PICASSO <-> PLACE D'ITALIE) - Aller,1
1767,République,51420,13,0,5,(BOBIGNY - PABLO PICASSO <-> PLACE D'ITALIE) - Aller,1
1843,Oberkampf,51480,14,0,5,(BOBIGNY - PABLO PICASSO <-> PLACE D'ITALIE) - Aller,1
1700,Richard-Lenoir,51540,15,0,5,(BOBIGNY - PABLO PICASSO <-> PLACE D'ITALIE) - Aller,1
2008,Bréguet-Sabin,51660,16,0,5,(BOBIGNY - PABLO PICASSO <-> PLACE D'ITALIE) - Aller,1
2063,Bastille,51720,17,0,5,(BOBIGNY - PABLO PICASSO <-> PLACE D'ITALIE) - Aller,1
1759,Quai de la Rapée,51840,18,0,5,(BOBIGNY - PABLO PICASSO <-> PLACE D'ITALIE) - Aller,1
1951,Gare d'Austerlitz,51900,19,0,5,(BOBIGNY - PABLO PICASSO <-> PLACE D'ITALIE) - Aller,1
1641,Saint-Marcel,52020,20,0,5,(BOBIGNY - PABLO PICASSO <-> PLACE D'ITALIE) - Aller,1
2017,Campo-Formio,52080,21,0,5,(BOBIGNY - PABLO PICASSO <-> PLACE D'ITALIE) - Aller,1
1793,Place d'Italie,52260,22,0,5,(BOBIGNY - PABLO PICASSO <-> PLACE D'ITALIE) - Aller,1
1793,Place d'Italie,52260,1,1,5,(BOBIGNY - PABLO PICASSO <-> PLACE D'ITALIE) - Retour,1
2017,Campo-Formio,52440,2,1,5,(BOBIGNY - PABLO PICASSO <-> PLACE D'ITALIE) - Retour,1
1641,Saint-Marcel,52500,3,1,5,(BOBIGNY - PABLO PICASSO <-> PLACE D'ITALIE) - Retour,1
1951,Gare d'Austerlitz,52620,4,1,5,(BOBIGNY - PABLO PICASSO <-> PLACE D'ITALIE) - Retour,1
1759,Quai de la Rapée,52680,5,1,5,(BOBIGNY - PABLO PICASSO <-> PLACE D'ITALIE) - Retour,1
2063,Bastille,52800,6,1,5,(BOBIGNY - PABLO PICASSO <-> PLACE D'ITALIE) - Retour,1
2008,Bréguet-Sabin,52860,7,1,5,(BOBIGNY - PABLO PICASSO <-> PLACE D'ITALIE) - Retour,1
1700,Richard-Lenoir,52980,8,1,5,(BOBIGNY - PABLO PICASSO <-> PLACE D'ITALIE) - Retour,1
1843,Oberkampf,53040,9,1,5,(BOBIGNY - PABLO PICASSO <-> PLACE D'ITALIE) - Retour,1
1767,République,53100,10,1,5,(BOBIGNY - PABLO PICASSO <-> PLACE D'ITALIE) - Retour,1
1898,Jacques-Bonsergent,53220,11,1,5,(BOBIGNY - PABLO PICASSO <-> PLACE D'ITALIE) - Retour,1
2076,Gare de l'Est (Verdun),53340,12,1,5,(BOBIGNY - PABLO PICASSO <-> PLACE D'ITALIE) - Retour,1
1958,Gare du Nord,53460,13,1,5,(BOBIGNY - PABLO PICASSO <-> PLACE D'ITALIE) - Retour,1
1675,Stalingrad,53580,14,1,5,(BOBIGNY - PABLO PICASSO <-> PLACE D'ITALIE) - Retour,1
1901,Jaurès,53640,15,1,5,(BOBIGNY - PABLO PICASSO <-> PLACE D'ITALIE) - Retour,1
1922,Laumière,53700,16,1,5,(BOBIGNY - PABLO PICASSO <-> PLACE D'ITALIE) - Retour,1
1772,Ourcq,53820,17,1,5,(BOBIGNY - PABLO PICASSO <-> PLACE D'ITALIE) - Retour,1
1746,Porte de Pantin,53880,18,1,5,(BOBIGNY - PABLO PICASSO <-> PLACE D'ITALIE) - Retour,1
1891,Hoche,54000,19,1,5,(BOBIGNY - PABLO PICASSO <-> PLACE D'ITALIE) - Retour,1
1932,Eglise de Pantin,54060,20,1,5,(BOBIGNY - PABLO PICASSO <-> PLACE D'ITALIE) - Retour,1
2072,Bobigny-Pantin (Raymond Queneau),54180,21,1,5,(BOBIGNY - PABLO PICASSO <-> PLACE D'ITALIE) - Retour,1
2089,Bobigny-Pablo-Picasso,54360,22,1,5,(BOBIGNY - PABLO PICASSO <-> PLACE D'ITALIE) - Retour,1
1834,Nation,49020,1,0,6,(NATION <-> CHARLES DE GAULLE - ETOILE) - Aller,1
1789,Picpus,49080,2,0,6,(NATION <-> CHARLES DE GAULLE - ETOILE) - Aller,1
2065,Bel-Air,49140,3,0,6,(NATION <-> CHARLES DE GAULLE - ETOILE) - Aller,1
2081,Daumesnil (Félix Eboué),49260,4,0,6,(NATION <-> CHARLES DE GAULLE - ETOILE) - Aller,1
2082,Dugommier,49320,5,0,6,(NATION <-> CHARLES DE GAULLE - ETOILE) - Aller,1
2068,Bercy,49380,6,0,6,(NATION <-> CHARLES DE GAULLE - ETOILE) - Aller,1
1644,Quai de la Gare,49440,7,0,6,(NATION <-> CHARLES DE GAULLE - ETOILE) - Aller,1
1974,Chevaleret,49500,8,0,6,(NATION <-> CHARLES DE GAULLE - ETOILE) - Aller,1
1836,Nationale,49560,9,0,6,(NATION <-> CHARLES DE GAULLE - ETOILE) - Aller,1
1794,Place d'Italie,49620,10,0,6,(NATION <-> CHARLES DE GAULLE - ETOILE) - Aller,1
1987,Corvisart,49740,11,0,6,(NATION <-> CHARLES DE GAULLE - ETOILE) - Aller,1
1962,Glacière,49800,12,0,6,(NATION <-> CHARLES DE GAULLE - ETOILE) - Aller,1
1640,Saint-Jacques,49860,13,0,6,(NATION <-> CHARLES DE GAULLE - ETOILE) - Aller,1
1997,Denfert-Rochereau,49980,14,0,6,(NATION <-> CHARLES DE GAULLE - ETOILE) - Aller,1
1763,Raspail,50040,15,0,6,(NATION <-> CHARLES DE GAULLE - ETOILE) - Aller,1
1930,Edgar-Quinet,50100,16,0,6,(NATION <-> CHARLES DE GAULLE - ETOILE) - Aller,1
1825,Montparnasse-Bienvenue,50160,17,0,6,(NATION <-> CHARLES DE GAULLE - ETOILE) - Aller,1
1781,Pasteur,50280,18,0,6,(NATION <-> CHARLES DE GAULLE - ETOILE) - Aller,1
1665,Sèvres-Lecourbe,50340,19,0,6,(NATION <-> CHARLES DE GAULLE - ETOILE) - Aller,1
2016,Cambronne,50400,20,0,6,(NATION <-> CHARLES DE GAULLE - ETOILE) - Aller,1
1657,La Motte-Picquet-Grenelle,50460,21,0,6,(NATION <-> CHARLES DE GAULLE - ETOILE) - Aller,1
1926,Dupleix,50520,22,0,6,(NATION <-> CHARLES DE GAULLE - ETOILE) - Aller,1
2069,Bir-Hakeim (Grenelle),50580,23,0,6,(NATION <-> CHARLES DE GAULLE - ETOILE) - Aller,1
1780,Passy,50640,24,0,6,(NATION <-> CHARLES DE GAULLE - ETOILE) - Aller,1
1687,Trocadéro,50760,25,0,6,(NATION <-> CHARLES DE GAULLE - ETOILE) - Aller,1
2073,Boissière,50820,26,0,6,(NATION <-> CHARLES DE GAULLE - ETOILE) - Aller,1
1909,Kléber,50880,27,0,6,(NATION <-> CHARLES DE GAULLE - ETOILE) - Aller,1
2030,Charles de Gaulle-Etoile,51000,28,0,6,(NATION <-> CHARLES DE GAULLE - ETOILE) - Aller,1
2030,Charles de Gaulle-Etoile,51000,1,1,6,(NATION <-> CHARLES DE GAULLE - ETOILE) - Retour,1
1909,Kléber,51120,2,1,6,(NATION <-> CHARLES DE GAULLE - ETOILE) - Retour,1
2073,Boissière,51180,3,1,6,(NATION <-> CHARLES DE GAULLE - ETOILE) - Retour,1
1687,Trocadéro,51240,4,1,6,(NATION <-> CHARLES DE GAULLE - ETOILE) - Retour,1
1780,Passy,51360,5,1,6,(NATION <-> CHARLES DE GAULLE - ETOILE) - Retour,1
2069,Bir-Hakeim (Grenelle),51420,6,1,6,(NATION <-> CHARLES DE GAULLE - ETOILE) - Retour,1
1926,Dupleix,51480,7,1,6,(NATION <-> CHARLES DE GAULLE - ETOILE) - Retour,1
1657,La Motte-Picquet-Grenelle,51540,8,1,6,(NATION <-> CHARLES DE GAULLE - ETOILE) - Retour,1
2016,Cambronne,51600,9,1,6,(NATION <-> CHARLES DE GAULLE - ETOILE) - Retour,1
1665,Sèvres-Lecourbe,51660,10,1,6,(NATION <-> CHARLES DE GAULLE - ETOILE) - Retour,1
1781,Pasteur,51720,11,1,6,(NATION <-> CHARLES DE GAULLE - ETOILE) - Retour,1
1825,Montparnasse-Bienvenue,51840,12,1,6,(NATION <-> CHARLES DE GAULLE - ETOILE) - Retour,1
1930,Edgar-Quinet,51900,13,1,6,(NATION <-> CHARLES DE GAULLE - ETOILE) - Retour,1
1763,Raspail,51960,14,1,6,(NATION <-> CHARLES DE GAULLE - ETOILE) - Retour,1
1997,Denfert-Rochereau,52020,15,1,6,(NATION <-> CHARLES DE GAULLE - ETOILE) - Retour,1
1640,Saint-Jacques,52140,16,1,6,(NATION <-> CHARLES DE GAULLE - ETOILE) - Retour,1
1962,Glacière,52200,17,1,6,(NATION <-> CHARLES DE GAULLE - ETOILE) - Retour,1
1987,Corvisart,52260,18,1,6,(NATION <-> CHARLES DE GAULLE - ETOILE) - Retour,1
1794,Place d'Italie,52380,19,1,6,(NATION <-> CHARLES DE GAULLE - ETOILE) - Retour,1
1836,Nationale,52440,20,1,6,(NATION <-> CHARLES DE GAULLE - ETOILE) - Retour,1
1974,Chevaleret,52500,21,1,6,(NATION <-> CHARLES DE GAULLE - ETOILE) - Retour,1
1644,Quai de la Gare,52560,22,1,6,(NATION <-> CHARLES DE GAULLE - ETOILE) - Retour,1
2068,Bercy,52620,23,1,6,(NATION <-> CHARLES DE GAULLE - ETOILE) - Retour,1
2082,Dugommier,52680,24,1,6,(NATION <-> CHARLES DE GAULLE - ETOILE) - Retour,1
2081,Daumesnil (Félix Eboué),52740,25,1,6,(NATION <-> CHARLES DE GAULLE - ETOILE) - Retour,1
2065,Bel-Air,52860,26,1,6,(NATION <-> CHARLES DE GAULLE - ETOILE) - Retour,1
1789,Picpus,52920,27,1,6,(NATION <-> CHARLES DE GAULLE - ETOILE) - Retour,1
1834,Nation,52980,28,1,6,(NATION <-> CHARLES DE GAULLE - ETOILE) - Retour,1
1911,La Courneuve-8-Mai-1945,73380,1,0,7,(LA COURNEUVE - 8 MAI 1945 <-> VILLEJUIF-L. ARAGON / MAIRIE D'IVRY) - Aller,1
1944,Fort d'Aubervilliers,73500,2,0,7,(LA COURNEUVE - 8 MAI 1945 <-> VILLEJUIF-L. ARAGON / MAIRIE D'IVRY) - Aller,1
2055,Aubervilliers Pantin (4 Chemins),73620,3,0,7,(LA COURNEUVE - 8 MAI 1945 <-> VILLEJUIF-L. ARAGON / MAIRIE D'IVRY) - Aller,1
1744,Porte de la Villette,73740,4,0,7,(LA COURNEUVE - 8 MAI 1945 <-> VILLEJUIF-L. ARAGON / MAIRIE D'IVRY) - Aller,1
1985,Corentin-Cariou,73860,5,0,7,(LA COURNEUVE - 8 MAI 1945 <-> VILLEJUIF-L. ARAGON / MAIRIE D'IVRY) - Aller,1
2080,Crimée,73920,6,0,7,(LA COURNEUVE - 8 MAI 1945 <-> VILLEJUIF-L. ARAGON / MAIRIE D'IVRY) - Aller,1
1703,Riquet,73980,7,0,7,(LA COURNEUVE - 8 MAI 1945 <-> VILLEJUIF-L. ARAGON / MAIRIE D'IVRY) - Aller,1
1676,Stalingrad,74040,8,0,7,(LA COURNEUVE - 8 MAI 1945 <-> VILLEJUIF-L. ARAGON / MAIRIE D'IVRY) - Aller,1
1860,Louis Blanc,74100,9,0,7,(LA COURNEUVE - 8 MAI 1945 <-> VILLEJUIF-L. ARAGON / MAIRIE D'IVRY) - Aller,1
2085,Château Landon,74220,10,0,7,(LA COURNEUVE - 8 MAI 1945 <-> VILLEJUIF-L. ARAGON / MAIRIE D'IVRY) - Aller,1
1954,Gare de l'Est (Verdun),74280,11,0,7,(LA COURNEUVE - 8 MAI 1945 <-> VILLEJUIF-L. ARAGON / MAIRIE D'IVRY) - Aller,1
1800,Poissonnière,74400,12,0,7,(LA COURNEUVE - 8 MAI 1945 <-> VILLEJUIF-L. ARAGON / MAIRIE D'IVRY) - Aller,1
2015,Cadet,74460,13,0,7,(LA COURNEUVE - 8 MAI 1945 <-> VILLEJUIF-L. ARAGON / MAIRIE D'IVRY) - Aller,1
1849,Le Peletier,74520,14,0,7,(LA COURNEUVE - 8 MAI 1945 <-> VILLEJUIF-L. ARAGON / MAIRIE D'IVRY) - Aller,1
1971,Chaussée d'Antin (La Fayette),74580,15,0,7,(LA COURNEUVE - 8 MAI 1945 <-> VILLEJUIF-L. ARAGON / MAIRIE D'IVRY) - Aller,1
1847,Opéra,74700,16,0,7,(LA COURNEUVE - 8 MAI 1945 <-> VILLEJUIF-L. ARAGON / MAIRIE D'IVRY) - Aller,1
1757,Pyramides,74820,17,0,7,(LA COURNEUVE - 8 MAI 1945 <-> VILLEJUIF-L. ARAGON / MAIRIE D'IVRY) - Aller,1
1774,Palais-Royal (Musée du Louvre),74880,18,0,7,(LA COURNEUVE - 8 MAI 1945 <-> VILLEJUIF-L. ARAGON / MAIRIE D'IVRY) - Aller,1
1806,Pont Neuf,74940,19,0,7,(LA COURNEUVE - 8 MAI 1945 <-> VILLEJUIF-L. ARAGON / MAIRIE D'IVRY) - Aller,1
1966,Châtelet,75060,20,0,7,(LA COURNEUVE - 8 MAI 1945 <-> VILLEJUIF-L. ARAGON / MAIRIE D'IVRY) - Aller,1
1805,Pont Marie (Cité des Arts),75120,21,0,7,(LA COURNEUVE - 8 MAI 1945 <-> VILLEJUIF-L. ARAGON / MAIRIE D'IVRY) - Aller,1
1681,Sully-Morland,75180,22,0,7,(LA COURNEUVE - 8 MAI 1945 <-> VILLEJUIF-L. ARAGON / MAIRIE D'IVRY) - Aller,1
1907,Jussieu,75300,23,0,7,(LA COURNEUVE - 8 MAI 1945 <-> VILLEJUIF-L. ARAGON / MAIRIE D'IVRY) - Aller,1
1649,Place Monge (Jardin des Plantes),75360,24,0,7,(LA COURNEUVE - 8 MAI 1945 <-> VILLEJUIF-L. ARAGON / MAIRIE D'IVRY) - Aller,1
2020,Censier-Daubenton,75420,25,0,7,(LA COURNEUVE - 8 MAI 1945 <-> VILLEJUIF-L. ARAGON / MAIRIE D'IVRY) - Aller,1
1854,Les Gobelins,75540,26,0,7,(LA COURNEUVE - 8 MAI 1945 <-> VILLEJUIF-L. ARAGON / MAIRIE D'IVRY) - Aller,1
1648,Place d'Italie,75600,27,0,7,(LA COURNEUVE - 8 MAI 1945 <-> VILLEJUIF-L. ARAGON / MAIRIE D'IVRY) - Aller,1
1685,Tolbiac,75660,28,0,7,(LA COURNEUVE - 8 MAI 1945 <-> VILLEJUIF-L. ARAGON / MAIRIE D'IVRY) - Aller,1
1876,Maison Blanche,75720,29,0,7,(LA COURNEUVE - 8 MAI 1945 <-> VILLEJUIF-L. ARAGON / MAIRIE D'IVRY) - Aller,1
1925,Le Kremlin-Bicêtre,75840,30,0,7,(LA COURNEUVE - 8 MAI 1945 <-> VILLEJUIF-L. ARAGON / MAIRIE D'IVRY) - Aller,1
1639,Villejuif-Léo Lagrange,75960,31,0,7,(LA COURNEUVE - 8 MAI 1945 <-> VILLEJUIF-L. ARAGON / MAIRIE D'IVRY) - Aller,1
1696,Villejuif-Paul Vaillant Couturier (Hôpital Paul Brousse),76020,32,0,7,(LA COURNEUVE - 8 MAI 1945 <-> VILLEJUIF-L. ARAGON / MAIRIE D'IVRY) - Aller,1
1695,Villejuif-Louis Aragon,76140,33,0,7,(LA COURNEUVE - 8 MAI 1945 <-> VILLEJUIF-L. ARAGON / MAIRIE D'IVRY) - Aller,1
1695,Villejuif-Louis Aragon,76140,1,1,7,(LA COURNEUVE - 8 MAI 1945 <-> VILLEJUIF-L. ARAGON / MAIRIE D'IVRY) - Retour,1
1696,Villejuif-Paul Vaillant Couturier (Hôpital Paul Brousse),76260,2,1,7,(LA COURNEUVE - 8 MAI 1945 <-> VILLEJUIF-L. ARAGON / MAIRIE D'IVRY) - Retour,1
1639,Villejuif-Léo Lagrange,76320,3,1,7,(LA COURNEUVE - 8 MAI 1945 <-> VILLEJUIF-L. ARAGON / MAIRIE D'IVRY) - Retour,1
1925,Le Kremlin-Bicêtre,76440,4,1,7,(LA COURNEUVE - 8 MAI 1945 <-> VILLEJUIF-L. ARAGON / MAIRIE D'IVRY) - Retour,1
1876,Maison Blanche,76560,5,1,7,(LA COURNEUVE - 8 MAI 1945 <-> VILLEJUIF-L. ARAGON / MAIRIE D'IVRY) - Retour,1
1685,Tolbiac,76620,6,1,7,(LA COURNEUVE - 8 MAI 1945 <-> VILLEJUIF-L. ARAGON / MAIRIE D'IVRY) - Retour,1
1648,Place d'Italie,76680,7,1,7,(LA COURNEUVE - 8 MAI 1945 <-> VILLEJUIF-L. ARAGON / MAIRIE D'IVRY) - Retour,1
1854,Les Gobelins,76740,8,1,7,(LA COURNEUVE - 8 MAI 1945 <-> VILLEJUIF-L. ARAGON / MAIRIE D'IVRY) - Retour,1
2020,Censier-Daubenton,76860,9,1,7,(LA COURNEUVE - 8 MAI 1945 <-> VILLEJUIF-L. ARAGON / MAIRIE D'IVRY) - Retour,1
1649,Place Monge (Jardin des Plantes),76920,10,1,7,(LA COURNEUVE - 8 MAI 1945 <-> VILLEJUIF-L. ARAGON / MAIRIE D'IVRY) - Retour,1
1907,Jussieu,76980,11,1,7,(LA COURNEUVE - 8 MAI 1945 <-> VILLEJUIF-L. ARAGON / MAIRIE D'IVRY) - Retour,1
1681,Sully-Morland,77100,12,1,7,(LA COURNEUVE - 8 MAI 1945 <-> VILLEJUIF-L. ARAGON / MAIRIE D'IVRY) - Retour,1
1805,Pont Marie (Cité des Arts),77160,13,1,7,(LA COURNEUVE - 8 MAI 1945 <-> VILLEJUIF-L. ARAGON / MAIRIE D'IVRY) - Retour,1
1966,Châtelet,77220,14,1,7,(LA COURNEUVE - 8 MAI 1945 <-> VILLEJUIF-L. ARAGON / MAIRIE D'IVRY) - Retour,1
1806,Pont Neuf,77340,15,1,7,(LA COURNEUVE - 8 MAI 1945 <-> VILLEJUIF-L. ARAGON / MAIRIE D'IVRY) - Retour,1
1774,Palais-Royal (Musée du Louvre),77400,16,1,7,(LA COURNEUVE - 8 MAI 1945 <-> VILLEJUIF-L. ARAGON / MAIRIE D'IVRY) - Retour,1
1757,Pyramides,77460,17,1,7,(LA COURNEUVE - 8 MAI 1945 <-> VILLEJUIF-L. ARAGON / MAIRIE D'IVRY) - Retour,1
1847,Opéra,77580,18,1,7,(LA COURNEUVE - 8 MAI 1945 <-> VILLEJUIF-L. ARAGON / MAIRIE D'IVRY) - Retour,1
1971,Chaussée d'Antin (La Fayette),77700,19,1,7,(LA COURNEUVE - 8 MAI 1945 <-> VILLEJUIF-L. ARAGON / MAIRIE D'IVRY) - Retour,1
1849,Le Peletier,77760,20,1,7,(LA COURNEUVE - 8 MAI 1945 <-> VILLEJUIF-L. ARAGON / MAIRIE D'IVRY) - Retour,1
2015,Cadet,77820,21,1,7,(LA COURNEUVE - 8 MAI 1945 <-> VILLEJUIF-L. ARAGON / MAIRIE D'IVRY) - Retour,1
1800,Poissonnière,77880,22,1,7,(LA COURNEUVE - 8 MAI 1945 <-> VILLEJUIF-L. ARAGON / MAIRIE D'IVRY) - Retour,1
1954,Gare de l'Est (Verdun),78000,23,1,7,(LA COURNEUVE - 8 MAI 1945 <-> VILLEJUIF-L. ARAGON / MAIRIE D'IVRY) - Retour,1
2085,Château Landon,78060,24,1,7,(LA COURNEUVE - 8 MAI 1945 <-> VILLEJUIF-L. ARAGON / MAIRIE D'IVRY) - Retour,1
1860,Louis Blanc,78180,25,1,7,(LA COURNEUVE - 8 MAI 1945 <-> VILLEJUIF-L. ARAGON / MAIRIE D'IVRY) - Retour,1
1676,Stalingrad,78240,26,1,7,(LA COURNEUVE - 8 MAI 1945 <-> VILLEJUIF-L. ARAGON / MAIRIE D'IVRY) - Retour,1
1703,Riquet,78300,27,1,7,(LA COURNEUVE - 8 MAI 1945 <-> VILLEJUIF-L. ARAGON / MAIRIE D'IVRY) - Retour,1
2080,Crimée,78360,28,1,7,(LA COURNEUVE - 8 MAI 1945 <-> VILLEJUIF-L. ARAGON / MAIRIE D'IVRY) - Retour,1
1985,Corentin-Cariou,78420,29,1,7,(LA COURNEUVE - 8 MAI 1945 <-> VILLEJUIF-L. ARAGON / MAIRIE D'IVRY) - Retour,1
1744,Porte de la Villette,78540,30,1,7,(LA COURNEUVE - 8 MAI 1945 <-> VILLEJUIF-L. ARAGON / MAIRIE D'IVRY) - Retour,1
2055,Aubervilliers Pantin (4 Chemins),78660,31,1,7,(LA COURNEUVE - 8 MAI 1945 <-> VILLEJUIF-L. ARAGON / MAIRIE D'IVRY) - Retour,1
1944,Fort d'Aubervilliers,78780,32,1,7,(LA COURNEUVE - 8 MAI 1945 <-> VILLEJUIF-L. ARAGON / MAIRIE D'IVRY) - Retour,1
1911,La Courneuve-8-Mai-1945,78900,33,1,7,(LA COURNEUVE - 8 MAI 1945 <-> VILLEJUIF-L. ARAGON / MAIRIE D'IVRY) - Retour,1
1911,La Courneuve-8-Mai-1945,73020,1,0,7,(LA COURNEUVE - 8 MAI 1945 <-> VILLEJUIF-L. ARAGON / MAIRIE D'IVRY) - Aller,1
1944,Fort d'Aubervilliers,73140,2,0,7,(LA COURNEUVE - 8 MAI 1945 <-> VILLEJUIF-L. ARAGON / MAIRIE D'IVRY) - Aller,1
2055,Aubervilliers Pantin (4 Chemins),73260,3,0,7,(LA COURNEUVE - 8 MAI 1945 <-> VILLEJUIF-L. ARAGON / MAIRIE D'IVRY) - Aller,1
1744,Porte de la Villette,73380,4,0,7,(LA COURNEUVE - 8 MAI 1945 <-> VILLEJUIF-L. ARAGON / MAIRIE D'IVRY) - Aller,1
1985,Corentin-Cariou,73500,5,0,7,(LA COURNEUVE - 8 MAI 1945 <-> VILLEJUIF-L. ARAGON / MAIRIE D'IVRY) - Aller,1
2080,Crimée,73560,6,0,7,(LA COURNEUVE - 8 MAI 1945 <-> VILLEJUIF-L. ARAGON / MAIRIE D'IVRY) - Aller,1
1703,Riquet,73620,7,0,7,(LA COURNEUVE - 8 MAI 1945 <-> VILLEJUIF-L. ARAGON / MAIRIE D'IVRY) - Aller,1
1676,Stalingrad,73680,8,0,7,(LA COURNEUVE - 8 MAI 1945 <-> VILLEJUIF-L. ARAGON / MAIRIE D'IVRY) - Aller,1
1860,Louis Blanc,73740,9,0,7,(LA COURNEUVE - 8 MAI 1945 <-> VILLEJUIF-L. ARAGON / MAIRIE D'IVRY) - Aller,1
2085,Château Landon,73860,10,0,7,(LA COURNEUVE - 8 MAI 1945 <-> VILLEJUIF-L. ARAGON / MAIRIE D'IVRY) - Aller,1
1954,Gare de l'Est (Verdun),73920,11,0,7,(LA COURNEUVE - 8 MAI 1945 <-> VILLEJUIF-L. ARAGON / MAIRIE D'IVRY) - Aller,1
1800,Poissonnière,74040,12,0,7,(LA COURNEUVE - 8 MAI 1945 <-> VILLEJUIF-L. ARAGON / MAIRIE D'IVRY) - Aller,1
2015,Cadet,74100,13,0,7,(LA COURNEUVE - 8 MAI 1945 <-> VILLEJUIF-L. ARAGON / MAIRIE D'IVRY) - Aller,1
1849,Le Peletier,74160,14,0,7,(LA COURNEUVE - 8 MAI 1945 <-> VILLEJUIF-L. ARAGON / MAIRIE D'IVRY) - Aller,1
1971,Chaussée d'Antin (La Fayette),74220,15,0,7,(LA COURNEUVE - 8 MAI 1945 <-> VILLEJUIF-L. ARAGON / MAIRIE D'IVRY) - Aller,1
1847,Opéra,74340,16,0,7,(LA COURNEUVE - 8 MAI 1945 <-> VILLEJUIF-L. ARAGON / MAIRIE D'IVRY) - Aller,1
1757,Pyramides,74460,17,0,7,(LA COURNEUVE - 8 MAI 1945 <-> VILLEJUIF-L. ARAGON / MAIRIE D'IVRY) - Aller,1
1774,Palais-Royal (Musée du Louvre),74520,18,0,7,(LA COURNEUVE - 8 MAI 1945 <-> VILLEJUIF-L. ARAGON / MAIRIE D'IVRY) - Aller,1
1806,Pont Neuf,74580,19,0,7,(LA COURNEUVE - 8 MAI 1945 <-> VILLEJUIF-L. ARAGON / MAIRIE D'IVRY) - Aller,1
1966,Châtelet,74700,20,0,7,(LA COURNEUVE - 8 MAI 1945 <-> VILLEJUIF-L. ARAGON / MAIRIE D'IVRY) - Aller,1
1805,Pont Marie (Cité des Arts),74760,21,0,7,(LA COURNEUVE - 8 MAI 1945 <-> VILLEJUIF-L. ARAGON / MAIRIE D'IVRY) - Aller,1
1681,Sully-Morland,74820,22,0,7,(LA COURNEUVE - 8 MAI 1945 <-> VILLEJUIF-L. ARAGON / MAIRIE D'IVRY) - Aller,1
1907,Jussieu,74940,23,0,7,(LA COURNEUVE - 8 MAI 1945 <-> VILLEJUIF-L. ARAGON / MAIRIE D'IVRY) - Aller,1
1649,Place Monge (Jardin des Plantes),75000,24,0,7,(LA COURNEUVE - 8 MAI 1945 <-> VILLEJUIF-L. ARAGON / MAIRIE D'IVRY) - Aller,1
2020,Censier-Daubenton,75060,25,0,7,(LA COURNEUVE - 8 MAI 1945 <-> VILLEJUIF-L. ARAGON / MAIRIE D'IVRY) - Aller,1
1854,Les Gobelins,75180,26,0,7,(LA COURNEUVE - 8 MAI 1945 <-> VILLEJUIF-L. ARAGON / MAIRIE D'IVRY) - Aller,1
1648,Place d'Italie,75240,27,0,7,(LA COURNEUVE - 8 MAI 1945 <-> VILLEJUIF-L. ARAGON / MAIRIE D'IVRY) - Aller,1
1685,Tolbiac,75300,28,0,7,(LA COURNEUVE - 8 MAI 1945 <-> VILLEJUIF-L. ARAGON / MAIRIE D'IVRY) - Aller,1
1876,Maison Blanche,75360,29,0,7,(LA COURNEUVE - 8 MAI 1945 <-> VILLEJUIF-L. ARAGON / MAIRIE D'IVRY) - Aller,1
1808,Porte d'Italie,75480,30,0,7,(LA COURNEUVE - 8 MAI 1945 <-> VILLEJUIF-L. ARAGON / MAIRIE D'IVRY) - Aller,1
1740,Porte de Choisy,75540,31,0,7,(LA COURNEUVE - 8 MAI 1945 <-> VILLEJUIF-L. ARAGON / MAIRIE D'IVRY) - Aller,1
1734,Porte d'Ivry,75600,32,0,7,(LA COURNEUVE - 8 MAI 1945 <-> VILLEJUIF-L. ARAGON / MAIRIE D'IVRY) - Aller,1
1790,Pierre et Marie Curie,75660,33,0,7,(LA COURNEUVE - 8 MAI 1945 <-> VILLEJUIF-L. ARAGON / MAIRIE D'IVRY) - Aller,1
1871,Mairie d'Ivry,75780,34,0,7,(LA COURNEUVE - 8 MAI 1945 <-> VILLEJUIF-L. ARAGON / MAIRIE D'IVRY) - Aller,1
2301,Mairie d'Ivry,72720,1,1,7,(LA COURNEUVE - 8 MAI 1945 <-> VILLEJUIF-L. ARAGON / MAIRIE D'IVRY) - Retour,1
2400,Pierre et Marie Curie,72840,2,1,7,(LA COURNEUVE - 8 MAI 1945 <-> VILLEJUIF-L. ARAGON / MAIRIE D'IVRY) - Retour,1
2412,Porte d'Ivry,72960,3,1,7,(LA COURNEUVE - 8 MAI 1945 <-> VILLEJUIF-L. ARAGON / MAIRIE D'IVRY) - Retour,1
2418,Porte de Choisy,73020,4,1,7,(LA COURNEUVE - 8 MAI 1945 <-> VILLEJUIF-L. ARAGON / MAIRIE D'IVRY) - Retour,1
2347,Porte d'Italie,73080,5,1,7,(LA COURNEUVE - 8 MAI 1945 <-> VILLEJUIF-L. ARAGON / MAIRIE D'IVRY) - Retour,1
2272,Maison Blanche,73200,6,1,7,(LA COURNEUVE - 8 MAI 1945 <-> VILLEJUIF-L. ARAGON / MAIRIE D'IVRY) - Retour,1
2495,Tolbiac,73260,7,1,7,(LA COURNEUVE - 8 MAI 1945 <-> VILLEJUIF-L. ARAGON / MAIRIE D'IVRY) - Retour,1
2528,Place d'Italie,73320,8,1,7,(LA COURNEUVE - 8 MAI 1945 <-> VILLEJUIF-L. ARAGON / MAIRIE D'IVRY) - Retour,1
2321,Les Gobelins,73440,9,1,7,(LA COURNEUVE - 8 MAI 1945 <-> VILLEJUIF-L. ARAGON / MAIRIE D'IVRY) - Retour,1
2139,Censier-Daubenton,73500,10,1,7,(LA COURNEUVE - 8 MAI 1945 <-> VILLEJUIF-L. ARAGON / MAIRIE D'IVRY) - Retour,1
2529,Place Monge (Jardin des Plantes),73560,11,1,7,(LA COURNEUVE - 8 MAI 1945 <-> VILLEJUIF-L. ARAGON / MAIRIE D'IVRY) - Retour,1
2232,Jussieu,73680,12,1,7,(LA COURNEUVE - 8 MAI 1945 <-> VILLEJUIF-L. ARAGON / MAIRIE D'IVRY) - Retour,1
2491,Sully-Morland,73740,13,1,7,(LA COURNEUVE - 8 MAI 1945 <-> VILLEJUIF-L. ARAGON / MAIRIE D'IVRY) - Retour,1
2344,Pont Marie (Cité des Arts),73860,14,1,7,(LA COURNEUVE - 8 MAI 1945 <-> VILLEJUIF-L. ARAGON / MAIRIE D'IVRY) - Retour,1
2221,Châtelet,73920,15,1,7,(LA COURNEUVE - 8 MAI 1945 <-> VILLEJUIF-L. ARAGON / MAIRIE D'IVRY) - Retour,1
2345,Pont Neuf,73980,16,1,7,(LA COURNEUVE - 8 MAI 1945 <-> VILLEJUIF-L. ARAGON / MAIRIE D'IVRY) - Retour,1
2384,Palais-Royal (Musée du Louvre),74100,17,1,7,(LA COURNEUVE - 8 MAI 1945 <-> VILLEJUIF-L. ARAGON / MAIRIE D'IVRY) - Retour,1
2435,Pyramides,74160,18,1,7,(LA COURNEUVE - 8 MAI 1945 <-> VILLEJUIF-L. ARAGON / MAIRIE D'IVRY) - Retour,1
2314,Opéra,74280,19,1,7,(LA COURNEUVE - 8 MAI 1945 <-> VILLEJUIF-L. ARAGON / MAIRIE D'IVRY) - Retour,1
2226,Chaussée d'Antin (La Fayette),74340,20,1,7,(LA COURNEUVE - 8 MAI 1945 <-> VILLEJUIF-L. ARAGON / MAIRIE D'IVRY) - Retour,1
2316,Le Peletier,74460,21,1,7,(LA COURNEUVE - 8 MAI 1945 <-> VILLEJUIF-L. ARAGON / MAIRIE D'IVRY) - Retour,1
2134,Cadet,74520,22,1,7,(LA COURNEUVE - 8 MAI 1945 <-> VILLEJUIF-L. ARAGON / MAIRIE D'IVRY) - Retour,1
2373,Poissonnière,74580,23,1,7,(LA COURNEUVE - 8 MAI 1945 <-> VILLEJUIF-L. ARAGON / MAIRIE D'IVRY) - Retour,1
2209,Gare de l'Est (Verdun),74640,24,1,7,(LA COURNEUVE - 8 MAI 1945 <-> VILLEJUIF-L. ARAGON / MAIRIE D'IVRY) - Retour,1
2546,Château Landon,74760,25,1,7,(LA COURNEUVE - 8 MAI 1945 <-> VILLEJUIF-L. ARAGON / MAIRIE D'IVRY) - Retour,1
2327,Louis Blanc,74820,26,1,7,(LA COURNEUVE - 8 MAI 1945 <-> VILLEJUIF-L. ARAGON / MAIRIE D'IVRY) - Retour,1
2486,Stalingrad,74880,27,1,7,(LA COURNEUVE - 8 MAI 1945 <-> VILLEJUIF-L. ARAGON / MAIRIE D'IVRY) - Retour,1
2448,Riquet,75000,28,1,7,(LA COURNEUVE - 8 MAI 1945 <-> VILLEJUIF-L. ARAGON / MAIRIE D'IVRY) - Retour,1
2093,Crimée,75060,29,1,7,(LA COURNEUVE - 8 MAI 1945 <-> VILLEJUIF-L. ARAGON / MAIRIE D'IVRY) - Retour,1
2175,Corentin-Cariou,75120,30,1,7,(LA COURNEUVE - 8 MAI 1945 <-> VILLEJUIF-L. ARAGON / MAIRIE D'IVRY) - Retour,1
2422,Porte de la Villette,75180,31,1,7,(LA COURNEUVE - 8 MAI 1945 <-> VILLEJUIF-L. ARAGON / MAIRIE D'IVRY) - Retour,1
2104,Aubervilliers Pantin (4 Chemins),75300,32,1,7,(LA COURNEUVE - 8 MAI 1945 <-> VILLEJUIF-L. ARAGON / MAIRIE D'IVRY) - Retour,1
2199,Fort d'Aubervilliers,75420,33,1,7,(LA COURNEUVE - 8 MAI 1945 <-> VILLEJUIF-L. ARAGON / MAIRIE D'IVRY) - Retour,1
2236,La Courneuve-8-Mai-1945,75540,34,1,7,(LA COURNEUVE - 8 MAI 1945 <-> VILLEJUIF-L. ARAGON / MAIRIE D'IVRY) - Retour,1
1756,Pré-Saint-Gervais,61500,1,0,7B,(PRE-SAINT-GERVAIS <-> LOUIS BLANC) - Aller,1
1635,Danube,61560,2,0,7B,(PRE-SAINT-GERVAIS <-> LOUIS BLANC) - Aller,1
2002,Botzaris,61680,3,0,7B,(PRE-SAINT-GERVAIS <-> LOUIS BLANC) - Aller,1
2013,Buttes-Chaumont,61740,4,0,7B,(PRE-SAINT-GERVAIS <-> LOUIS BLANC) - Aller,1
2075,Bolivar,61800,5,0,7B,(PRE-SAINT-GERVAIS <-> LOUIS BLANC) - Aller,1
1902,Jaurès,61860,6,0,7B,(PRE-SAINT-GERVAIS <-> LOUIS BLANC) - Aller,1
1861,Louis Blanc,61980,7,0,7B,(PRE-SAINT-GERVAIS <-> LOUIS BLANC) - Aller,1
1861,Louis Blanc,61980,1,1,7B,(PRE-SAINT-GERVAIS <-> LOUIS BLANC) - Retour,1
1902,Jaurès,62100,2,1,7B,(PRE-SAINT-GERVAIS <-> LOUIS BLANC) - Retour,1
2075,Bolivar,62160,3,1,7B,(PRE-SAINT-GERVAIS <-> LOUIS BLANC) - Retour,1
2013,Buttes-Chaumont,62220,4,1,7B,(PRE-SAINT-GERVAIS <-> LOUIS BLANC) - Retour,1
2002,Botzaris,62280,5,1,7B,(PRE-SAINT-GERVAIS <-> LOUIS BLANC) - Retour,1
1797,Place des Fêtes,62340,6,1,7B,(PRE-SAINT-GERVAIS <-> LOUIS BLANC) - Retour,1
1756,Pré-Saint-Gervais,62460,7,1,7B,(PRE-SAINT-GERVAIS <-> LOUIS BLANC) - Retour,1
3343334,Balard,55800,1,0,8,(BALARD <-> POINTE DU LAC) - Aller,1
3343336,Lourmel,55860,2,0,8,(BALARD <-> POINTE DU LAC) - Aller,1
3343338,Boucicaut,55920,3,0,8,(BALARD <-> POINTE DU LAC) - Aller,1
3343746,Félix Faure,55980,4,0,8,(BALARD <-> POINTE DU LAC) - Aller,1
3343753,Commerce,56040,5,0,8,(BALARD <-> POINTE DU LAC) - Aller,1
3343755,La Motte-Picquet-Grenelle,56160,6,0,8,(BALARD <-> POINTE DU LAC) - Aller,1
3343757,Ecole Militaire,56220,7,0,8,(BALARD <-> POINTE DU LAC) - Aller,1
3343759,La Tour-Maubourg,56280,8,0,8,(BALARD <-> POINTE DU LAC) - Aller,1
3343761,Invalides,56400,9,0,8,(BALARD <-> POINTE DU LAC) - Aller,1
3343763,Concorde,56520,10,0,8,(BALARD <-> POINTE DU LAC) - Aller,1
3343765,Madeleine,56580,11,0,8,(BALARD <-> POINTE DU LAC) - Aller,1
3343767,Opéra,56640,12,0,8,(BALARD <-> POINTE DU LAC) - Aller,1
3343769,Richelieu-Drouot,56700,13,0,8,(BALARD <-> POINTE DU LAC) - Aller,1
3343771,Grands Boulevards,56760,14,0,8,(BALARD <-> POINTE DU LAC) - Aller,1
3343773,Bonne Nouvelle,56820,15,0,8,(BALARD <-> POINTE DU LAC) - Aller,1
3343775,Strasbourg-Saint-Denis,56940,16,0,8,(BALARD <-> POINTE DU LAC) - Aller,1
3343777,République,57000,17,0,8,(BALARD <-> POINTE DU LAC) - Aller,1
3343779,Filles du Calvaire,57120,18,0,8,(BALARD <-> POINTE DU LAC) - Aller,1
3343781,Saint-Sébastien-Froissart,57180,19,0,8,(BALARD <-> POINTE DU LAC) - Aller,1
3343783,Chemin Vert,57240,20,0,8,(BALARD <-> POINTE DU LAC) - Aller,1
3343785,Bastille,57300,21,0,8,(BALARD <-> POINTE DU LAC) - Aller,1
3343787,Ledru-Rollin,57360,22,0,8,(BALARD <-> POINTE DU LAC) - Aller,1
3343789,Faidherbe-Chaligny,57420,23,0,8,(BALARD <-> POINTE DU LAC) - Aller,1
3343791,Reuilly-Diderot,57540,24,0,8,(BALARD <-> POINTE DU LAC) - Aller,1
3343793,Montgallet,57600,25,0,8,(BALARD <-> POINTE DU LAC) - Aller,1
3343795,Daumesnil (Félix Eboué),57660,26,0,8,(BALARD <-> POINTE DU LAC) - Aller,1
3343797,Michel Bizot,57720,27,0,8,(BALARD <-> POINTE DU LAC) - Aller,1
3343799,Porte Dorée,57840,28,0,8,(BALARD <-> POINTE DU LAC) - Aller,1
3343801,Porte de Charenton,57900,29,0,8,(BALARD <-> POINTE DU LAC) - Aller,1
3343803,Liberté,58020,30,0,8,(BALARD <-> POINTE DU LAC) - Aller,1
3343805,Charenton-Ecoles,58140,31,0,8,(BALARD <-> POINTE DU LAC) - Aller,1
3343807,Ecole Vétérinaire de Maisons-Alfort,58200,32,0,8,(BALARD <-> POINTE DU LAC) - Aller,1
3343809,Maisons-Alfort-Stade,58320,33,0,8,(BALARD <-> POINTE DU LAC) - Aller,1
3343811,Maisons-Alfort-Les Juilliottes,58440,34,0,8,(BALARD <-> POINTE DU LAC) - Aller,1
3343813,Créteil-L'Echat (Hôpital Henri Mondor),58560,35,0,8,(BALARD <-> POINTE DU LAC) - Aller,1
3343815,Créteil-Université,58620,36,0,8,(BALARD <-> POINTE DU LAC) - Aller,1
3343817,Créteil-Préfecture (Hôtel de Ville),58740,37,0,8,(BALARD <-> POINTE DU LAC) - Aller,1
3343819,Pointe du Lac,58920,38,0,8,(BALARD <-> POINTE DU LAC) - Aller,1
3343819,Pointe du Lac,58920,1,1,8,(BALARD <-> POINTE DU LAC) - Retour,1
3343817,Créteil-Préfecture (Hôtel de Ville),59100,2,1,8,(BALARD <-> POINTE DU LAC) - Retour,1
3343815,Créteil-Université,59220,3,1,8,(BALARD <-> POINTE DU LAC) - Retour,1
3343813,Créteil-L'Echat (Hôpital Henri Mondor),59280,4,1,8,(BALARD <-> POINTE DU LAC) - Retour,1
3343811,Maisons-Alfort-Les Juilliottes,59400,5,1,8,(BALARD <-> POINTE DU LAC) - Retour,1
3343809,Maisons-Alfort-Stade,59520,6,1,8,(BALARD <-> POINTE DU LAC) - Retour,1
3343807,Ecole Vétérinaire de Maisons-Alfort,59640,7,1,8,(BALARD <-> POINTE DU LAC) - Retour,1
3343805,Charenton-Ecoles,59700,8,1,8,(BALARD <-> POINTE DU LAC) - Retour,1
3343803,Liberté,59820,9,1,8,(BALARD <-> POINTE DU LAC) - Retour,1
3343801,Porte de Charenton,59940,10,1,8,(BALARD <-> POINTE DU LAC) - Retour,1
3343799,Porte Dorée,60000,11,1,8,(BALARD <-> POINTE DU LAC) - Retour,1
3343797,Michel Bizot,60120,12,1,8,(BALARD <-> POINTE DU LAC) - Retour,1
3343795,Daumesnil (Félix Eboué),60180,13,1,8,(BALARD <-> POINTE DU LAC) - Retour,1
3343793,Montgallet,60240,14,1,8,(BALARD <-> POINTE DU LAC) - Retour,1
3343791,Reuilly-Diderot,60300,15,1,8,(BALARD <-> POINTE DU LAC) - Retour,1
3343789,Faidherbe-Chaligny,60420,16,1,8,(BALARD <-> POINTE DU LAC) - Retour,1
3343787,Ledru-Rollin,60480,17,1,8,(BALARD <-> POINTE DU LAC) - Retour,1
3343785,Bastille,60540,18,1,8,(BALARD <-> POINTE DU LAC) - Retour,1
3343783,Chemin Vert,60600,19,1,8,(BALARD <-> POINTE DU LAC) - Retour,1
3343781,Saint-Sébastien-Froissart,60660,20,1,8,(BALARD <-> POINTE DU LAC) - Retour,1
3343779,Filles du Calvaire,60720,21,1,8,(BALARD <-> POINTE DU LAC) - Retour,1
3343777,République,60840,22,1,8,(BALARD <-> POINTE DU LAC) - Retour,1
3343775,Strasbourg-Saint-Denis,60900,23,1,8,(BALARD <-> POINTE DU LAC) - Retour,1
3343773,Bonne Nouvelle,61020,24,1,8,(BALARD <-> POINTE DU LAC) - Retour,1
3343771,Grands Boulevards,61080,25,1,8,(BALARD <-> POINTE DU LAC) - Retour,1
3343769,Richelieu-Drouot,61140,26,1,8,(BALARD <-> POINTE DU LAC) - Retour,1
3343767,Opéra,61200,27,1,8,(BALARD <-> POINTE DU LAC) - Retour,1
3343765,Madeleine,61260,28,1,8,(BALARD <-> POINTE DU LAC) - Retour,1
3343763,Concorde,61320,29,1,8,(BALARD <-> POINTE DU LAC) - Retour,1
3343761,Invalides,61440,30,1,8,(BALARD <-> POINTE DU LAC) - Retour,1
3343759,La Tour-Maubourg,61560,31,1,8,(BALARD <-> POINTE DU LAC) - Retour,1
3343757,Ecole Militaire,61620,32,1,8,(BALARD <-> POINTE DU LAC) - Retour,1
3343755,La Motte-Picquet-Grenelle,61680,33,1,8,(BALARD <-> POINTE DU LAC) - Retour,1
3343753,Commerce,61800,34,1,8,(BALARD <-> POINTE DU LAC) - Retour,1
3343746,Félix Faure,61860,35,1,8,(BALARD <-> POINTE DU LAC) - Retour,1
3343338,Boucicaut,61920,36,1,8,(BALARD <-> POINTE DU LAC) - Retour,1
3343336,Lourmel,61980,37,1,8,(BALARD <-> POINTE DU LAC) - Retour,1
3343334,Balard,62040,38,1,8,(BALARD <-> POINTE DU LAC) - Retour,1
1804,Pont de Sèvres,55560,1,0,9,(PONT DE SEVRES <-> MAIRIE DE MONTREUIL) - Aller,1
2088,Billancourt,55620,2,0,9,(PONT DE SEVRES <-> MAIRIE DE MONTREUIL) - Aller,1
1884,Marcel Sembat,55680,3,0,9,(PONT DE SEVRES <-> MAIRIE DE MONTREUIL) - Aller,1
1747,Porte de Saint-Cloud,55860,4,0,9,(PONT DE SEVRES <-> MAIRIE DE MONTREUIL) - Aller,1
1936,Exelmans,55920,5,0,9,(PONT DE SEVRES <-> MAIRIE DE MONTREUIL) - Aller,1
1816,Michel-Ange-Molitor,55980,6,0,9,(PONT DE SEVRES <-> MAIRIE DE MONTREUIL) - Aller,1
1814,Michel-Ange-Auteuil,56040,7,0,9,(PONT DE SEVRES <-> MAIRIE DE MONTREUIL) - Aller,1
1899,Jasmin,56160,8,0,9,(PONT DE SEVRES <-> MAIRIE DE MONTREUIL) - Aller,1
1762,Ranelagh,56220,9,0,9,(PONT DE SEVRES <-> MAIRIE DE MONTREUIL) - Aller,1
1917,La Muette,56280,10,0,9,(PONT DE SEVRES <-> MAIRIE DE MONTREUIL) - Aller,1
1708,Rue de la Pompe (Avenue Georges Mandel),56400,11,0,9,(PONT DE SEVRES <-> MAIRIE DE MONTREUIL) - Aller,1
1637,Trocadéro,56460,12,0,9,(PONT DE SEVRES <-> MAIRIE DE MONTREUIL) - Aller,1
1895,Iéna,56580,13,0,9,(PONT DE SEVRES <-> MAIRIE DE MONTREUIL) - Aller,1
2043,Alma-Marceau,56640,14,0,9,(PONT DE SEVRES <-> MAIRIE DE MONTREUIL) - Aller,1
1946,Franklin-Roosevelt,56760,15,0,9,(PONT DE SEVRES <-> MAIRIE DE MONTREUIL) - Aller,1
1730,Saint-Philippe du Roule,56820,16,0,9,(PONT DE SEVRES <-> MAIRIE DE MONTREUIL) - Aller,1
1819,Miromesnil,56940,17,0,9,(PONT DE SEVRES <-> MAIRIE DE MONTREUIL) - Aller,1
1715,Saint-Augustin,57000,18,0,9,(PONT DE SEVRES <-> MAIRIE DE MONTREUIL) - Aller,1
1890,Havre-Caumartin,57060,19,0,9,(PONT DE SEVRES <-> MAIRIE DE MONTREUIL) - Aller,1
1972,Chaussée d'Antin (La Fayette),57180,20,0,9,(PONT DE SEVRES <-> MAIRIE DE MONTREUIL) - Aller,1
1702,Richelieu-Drouot,57240,21,0,9,(PONT DE SEVRES <-> MAIRIE DE MONTREUIL) - Aller,1
1712,Grands Boulevards,57300,22,0,9,(PONT DE SEVRES <-> MAIRIE DE MONTREUIL) - Aller,1
2001,Bonne Nouvelle,57360,23,0,9,(PONT DE SEVRES <-> MAIRIE DE MONTREUIL) - Aller,1
1678,Strasbourg-Saint-Denis,57480,24,0,9,(PONT DE SEVRES <-> MAIRIE DE MONTREUIL) - Aller,1
1647,République,57600,25,0,9,(PONT DE SEVRES <-> MAIRIE DE MONTREUIL) - Aller,1
1844,Oberkampf,57660,26,0,9,(PONT DE SEVRES <-> MAIRIE DE MONTREUIL) - Aller,1
1714,Saint-Ambroise,57780,27,0,9,(PONT DE SEVRES <-> MAIRIE DE MONTREUIL) - Aller,1
1633,Voltaire (Léon Blum),57840,28,0,9,(PONT DE SEVRES <-> MAIRIE DE MONTREUIL) - Aller,1
2032,Charonne,57900,29,0,9,(PONT DE SEVRES <-> MAIRIE DE MONTREUIL) - Aller,1
1709,Rue des Boulets,57960,30,0,9,(PONT DE SEVRES <-> MAIRIE DE MONTREUIL) - Aller,1
1651,Nation,58080,31,0,9,(PONT DE SEVRES <-> MAIRIE DE MONTREUIL) - Aller,1
2014,Buzenval,58140,32,0,9,(PONT DE SEVRES <-> MAIRIE DE MONTREUIL) - Aller,1
1882,Maraîchers,58200,33,0,9,(PONT DE SEVRES <-> MAIRIE DE MONTREUIL) - Aller,1
1745,Porte de Montreuil,58320,34,0,9,(PONT DE SEVRES <-> MAIRIE DE MONTREUIL) - Aller,1
1704,Robespierre,58440,35,0,9,(PONT DE SEVRES <-> MAIRIE DE MONTREUIL) - Aller,1
1993,Croix-de-Chavaux (Jacques Duclos),58500,36,0,9,(PONT DE SEVRES <-> MAIRIE DE MONTREUIL) - Aller,1
1873,Mairie de Montreuil,58620,37,0,9,(PONT DE SEVRES <-> MAIRIE DE MONTREUIL) - Aller,1
1873,Mairie de Montreuil,58620,1,1,9,(PONT DE SEVRES <-> MAIRIE DE MONTREUIL) - Retour,1
1993,Croix-de-Chavaux (Jacques Duclos),58740,2,1,9,(PONT DE SEVRES <-> MAIRIE DE MONTREUIL) - Retour,1
1704,Robespierre,58800,3,1,9,(PONT DE SEVRES <-> MAIRIE DE MONTREUIL) - Retour,1
1745,Porte de Montreuil,58920,4,1,9,(PONT DE SEVRES <-> MAIRIE DE MONTREUIL) - Retour,1
1882,Maraîchers,59040,5,1,9,(PONT DE SEVRES <-> MAIRIE DE MONTREUIL) - Retour,1
2014,Buzenval,59100,6,1,9,(PONT DE SEVRES <-> MAIRIE DE MONTREUIL) - Retour,1
1651,Nation,59160,7,1,9,(PONT DE SEVRES <-> MAIRIE DE MONTREUIL) - Retour,1
1709,Rue des Boulets,59280,8,1,9,(PONT DE SEVRES <-> MAIRIE DE MONTREUIL) - Retour,1
2032,Charonne,59340,9,1,9,(PONT DE SEVRES <-> MAIRIE DE MONTREUIL) - Retour,1
1633,Voltaire (Léon Blum),59400,10,1,9,(PONT DE SEVRES <-> MAIRIE DE MONTREUIL) - Retour,1
1714,Saint-Ambroise,59460,11,1,9,(PONT DE SEVRES <-> MAIRIE DE MONTREUIL) - Retour,1
1844,Oberkampf,59580,12,1,9,(PONT DE SEVRES <-> MAIRIE DE MONTREUIL) - Retour,1
1647,République,59640,13,1,9,(PONT DE SEVRES <-> MAIRIE DE MONTREUIL) - Retour,1
1678,Strasbourg-Saint-Denis,59760,14,1,9,(PONT DE SEVRES <-> MAIRIE DE MONTREUIL) - Retour,1
2001,Bonne Nouvelle,59880,15,1,9,(PONT DE SEVRES <-> MAIRIE DE MONTREUIL) - Retour,1
1712,Grands Boulevards,59940,16,1,9,(PONT DE SEVRES <-> MAIRIE DE MONTREUIL) - Retour,1
1702,Richelieu-Drouot,60000,17,1,9,(PONT DE SEVRES <-> MAIRIE DE MONTREUIL) - Retour,1
1972,Chaussée d'Antin (La Fayette),60060,18,1,9,(PONT DE SEVRES <-> MAIRIE DE MONTREUIL) - Retour,1
1890,Havre-Caumartin,60180,19,1,9,(PONT DE SEVRES <-> MAIRIE DE MONTREUIL) - Retour,1
1715,Saint-Augustin,60240,20,1,9,(PONT DE SEVRES <-> MAIRIE DE MONTREUIL) - Retour,1
1819,Miromesnil,60300,21,1,9,(PONT DE SEVRES <-> MAIRIE DE MONTREUIL) - Retour,1
1730,Saint-Philippe du Roule,60420,22,1,9,(PONT DE SEVRES <-> MAIRIE DE MONTREUIL) - Retour,1
1946,Franklin-Roosevelt,60480,23,1,9,(PONT DE SEVRES <-> MAIRIE DE MONTREUIL) - Retour,1
2043,Alma-Marceau,60600,24,1,9,(PONT DE SEVRES <-> MAIRIE DE MONTREUIL) - Retour,1
1895,Iéna,60660,25,1,9,(PONT DE SEVRES <-> MAIRIE DE MONTREUIL) - Retour,1
1637,Trocadéro,60780,26,1,9,(PONT DE SEVRES <-> MAIRIE DE MONTREUIL) - Retour,1
1708,Rue de la Pompe (Avenue Georges Mandel),60840,27,1,9,(PONT DE SEVRES <-> MAIRIE DE MONTREUIL) - Retour,1
1917,La Muette,60960,28,1,9,(PONT DE SEVRES <-> MAIRIE DE MONTREUIL) - Retour,1
1762,Ranelagh,61020,29,1,9,(PONT DE SEVRES <-> MAIRIE DE MONTREUIL) - Retour,1
1899,Jasmin,61080,30,1,9,(PONT DE SEVRES <-> MAIRIE DE MONTREUIL) - Retour,1
1814,Michel-Ange-Auteuil,61200,31,1,9,(PONT DE SEVRES <-> MAIRIE DE MONTREUIL) - Retour,1
1816,Michel-Ange-Molitor,61260,32,1,9,(PONT DE SEVRES <-> MAIRIE DE MONTREUIL) - Retour,1
1936,Exelmans,61320,33,1,9,(PONT DE SEVRES <-> MAIRIE DE MONTREUIL) - Retour,1
1747,Porte de Saint-Cloud,61380,34,1,9,(PONT DE SEVRES <-> MAIRIE DE MONTREUIL) - Retour,1
1884,Marcel Sembat,61560,35,1,9,(PONT DE SEVRES <-> MAIRIE DE MONTREUIL) - Retour,1
2088,Billancourt,61620,36,1,9,(PONT DE SEVRES <-> MAIRIE DE MONTREUIL) - Retour,1
1804,Pont de Sèvres,61680,37,1,9,(PONT DE SEVRES <-> MAIRIE DE MONTREUIL) - Retour,1
2005,Boulogne Pont de Saint-Cloud,57780,1,0,10,(BOULOGNE - PONT DE SAINT CLOUD <-> GARE D'AUSTERLITZ) - Aller,1
2004,Boulogne-Jean-Jaurès,57900,2,0,10,(BOULOGNE - PONT DE SAINT CLOUD <-> GARE D'AUSTERLITZ) - Aller,1
1817,Michel-Ange-Molitor,58080,3,0,10,(BOULOGNE - PONT DE SAINT CLOUD <-> GARE D'AUSTERLITZ) - Aller,1
2026,Chardon-Lagache,58140,4,0,10,(BOULOGNE - PONT DE SAINT CLOUD <-> GARE D'AUSTERLITZ) - Aller,1
1818,Mirabeau,58200,5,0,10,(BOULOGNE - PONT DE SAINT CLOUD <-> GARE D'AUSTERLITZ) - Aller,1
1903,Javel-André-Citroen,58260,6,0,10,(BOULOGNE - PONT DE SAINT CLOUD <-> GARE D'AUSTERLITZ) - Aller,1
2031,Charles Michels,58380,7,0,10,(BOULOGNE - PONT DE SAINT CLOUD <-> GARE D'AUSTERLITZ) - Aller,1
2057,Avenue Emile-Zola,58440,8,0,10,(BOULOGNE - PONT DE SAINT CLOUD <-> GARE D'AUSTERLITZ) - Aller,1
1916,La Motte-Picquet-Grenelle,58560,9,0,10,(BOULOGNE - PONT DE SAINT CLOUD <-> GARE D'AUSTERLITZ) - Aller,1
1661,Ségur,58620,10,0,10,(BOULOGNE - PONT DE SAINT CLOUD <-> GARE D'AUSTERLITZ) - Aller,1
1927,Duroc,58740,11,0,10,(BOULOGNE - PONT DE SAINT CLOUD <-> GARE D'AUSTERLITZ) - Aller,1
1690,Vaneau,58800,12,0,10,(BOULOGNE - PONT DE SAINT CLOUD <-> GARE D'AUSTERLITZ) - Aller,1
1666,Sèvres-Babylone,58860,13,0,10,(BOULOGNE - PONT DE SAINT CLOUD <-> GARE D'AUSTERLITZ) - Aller,1
1867,Mabillon,58980,14,0,10,(BOULOGNE - PONT DE SAINT CLOUD <-> GARE D'AUSTERLITZ) - Aller,1
1653,Odéon,59040,15,0,10,(BOULOGNE - PONT DE SAINT CLOUD <-> GARE D'AUSTERLITZ) - Aller,1
1977,Cluny-La Sorbonne,59100,16,0,10,(BOULOGNE - PONT DE SAINT CLOUD <-> GARE D'AUSTERLITZ) - Aller,1
1811,Maubert-Mutualité,59160,17,0,10,(BOULOGNE - PONT DE SAINT CLOUD <-> GARE D'AUSTERLITZ) - Aller,1
2018,Cardinal-Lemoine,59280,18,0,10,(BOULOGNE - PONT DE SAINT CLOUD <-> GARE D'AUSTERLITZ) - Aller,1
1908,Jussieu,59340,19,0,10,(BOULOGNE - PONT DE SAINT CLOUD <-> GARE D'AUSTERLITZ) - Aller,1
1952,Gare d'Austerlitz,59520,20,0,10,(BOULOGNE - PONT DE SAINT CLOUD <-> GARE D'AUSTERLITZ) - Aller,1
2207,Gare d'Austerlitz,57960,1,1,10,(BOULOGNE - PONT DE SAINT CLOUD <-> GARE D'AUSTERLITZ) - Retour,1
2233,Jussieu,58080,2,1,10,(BOULOGNE - PONT DE SAINT CLOUD <-> GARE D'AUSTERLITZ) - Retour,1
2137,Cardinal-Lemoine,58140,3,1,10,(BOULOGNE - PONT DE SAINT CLOUD <-> GARE D'AUSTERLITZ) - Retour,1
2350,Maubert-Mutualité,58200,4,1,10,(BOULOGNE - PONT DE SAINT CLOUD <-> GARE D'AUSTERLITZ) - Retour,1
2167,Cluny-La Sorbonne,58260,5,1,10,(BOULOGNE - PONT DE SAINT CLOUD <-> GARE D'AUSTERLITZ) - Retour,1
2533,Odéon,58320,6,1,10,(BOULOGNE - PONT DE SAINT CLOUD <-> GARE D'AUSTERLITZ) - Retour,1
2334,Mabillon,58440,7,1,10,(BOULOGNE - PONT DE SAINT CLOUD <-> GARE D'AUSTERLITZ) - Retour,1
2476,Sèvres-Babylone,58500,8,1,10,(BOULOGNE - PONT DE SAINT CLOUD <-> GARE D'AUSTERLITZ) - Retour,1
2500,Vaneau,58560,9,1,10,(BOULOGNE - PONT DE SAINT CLOUD <-> GARE D'AUSTERLITZ) - Retour,1
2252,Duroc,58680,10,1,10,(BOULOGNE - PONT DE SAINT CLOUD <-> GARE D'AUSTERLITZ) - Retour,1
2541,Ségur,58740,11,1,10,(BOULOGNE - PONT DE SAINT CLOUD <-> GARE D'AUSTERLITZ) - Retour,1
2241,La Motte-Picquet-Grenelle,58860,12,1,10,(BOULOGNE - PONT DE SAINT CLOUD <-> GARE D'AUSTERLITZ) - Retour,1
2106,Avenue Emile-Zola,58920,13,1,10,(BOULOGNE - PONT DE SAINT CLOUD <-> GARE D'AUSTERLITZ) - Retour,1
2150,Charles Michels,59040,14,1,10,(BOULOGNE - PONT DE SAINT CLOUD <-> GARE D'AUSTERLITZ) - Retour,1
2299,Javel-André-Citroen,59100,15,1,10,(BOULOGNE - PONT DE SAINT CLOUD <-> GARE D'AUSTERLITZ) - Retour,1
2256,Eglise d'Auteuil,59220,16,1,10,(BOULOGNE - PONT DE SAINT CLOUD <-> GARE D'AUSTERLITZ) - Retour,1
2354,Michel-Ange-Auteuil,59280,17,1,10,(BOULOGNE - PONT DE SAINT CLOUD <-> GARE D'AUSTERLITZ) - Retour,1
2346,Porte d'Auteuil,59400,18,1,10,(BOULOGNE - PONT DE SAINT CLOUD <-> GARE D'AUSTERLITZ) - Retour,1
2193,Boulogne-Jean-Jaurès,59520,19,1,10,(BOULOGNE - PONT DE SAINT CLOUD <-> GARE D'AUSTERLITZ) - Retour,1
2194,Boulogne Pont de Saint-Cloud,59700,20,1,10,(BOULOGNE - PONT DE SAINT CLOUD <-> GARE D'AUSTERLITZ) - Retour,1
1875,Mairie des Lilas,51480,1,0,11,(MAIRIE DES LILAS <-> CHATELET) - Aller,1
1753,Porte des Lilas,51600,2,0,11,(MAIRIE DES LILAS <-> CHATELET) - Aller,1
1682,Télégraphe,51660,3,0,11,(MAIRIE DES LILAS <-> CHATELET) - Aller,1
1798,Place des Fêtes,51720,4,0,11,(MAIRIE DES LILAS <-> CHATELET) - Aller,1
1905,Jourdain,51780,5,0,11,(MAIRIE DES LILAS <-> CHATELET) - Aller,1
1758,Pyrénées,51840,6,0,11,(MAIRIE DES LILAS <-> CHATELET) - Aller,1
2066,Belleville,51960,7,0,11,(MAIRIE DES LILAS <-> CHATELET) - Aller,1
1963,Goncourt (Hôpital Saint-Louis),52020,8,0,11,(MAIRIE DES LILAS <-> CHATELET) - Aller,1
967988,République,52080,9,0,11,(MAIRIE DES LILAS <-> CHATELET) - Aller,1
2051,Arts-et-Métiers,52140,10,0,11,(MAIRIE DES LILAS <-> CHATELET) - Aller,1
1761,Rambuteau,52260,11,0,11,(MAIRIE DES LILAS <-> CHATELET) - Aller,1
1893,Hôtel de Ville,52320,12,0,11,(MAIRIE DES LILAS <-> CHATELET) - Aller,1
1965,Châtelet,52380,13,0,11,(MAIRIE DES LILAS <-> CHATELET) - Aller,1
1965,Châtelet,52380,1,1,11,(MAIRIE DES LILAS <-> CHATELET) - Retour,1
1893,Hôtel de Ville,52440,2,1,11,(MAIRIE DES LILAS <-> CHATELET) - Retour,1
1761,Rambuteau,52500,3,1,11,(MAIRIE DES LILAS <-> CHATELET) - Retour,1
2051,Arts-et-Métiers,52620,4,1,11,(MAIRIE DES LILAS <-> CHATELET) - Retour,1
967988,République,52680,5,1,11,(MAIRIE DES LILAS <-> CHATELET) - Retour,1
1963,Goncourt (Hôpital Saint-Louis),52740,6,1,11,(MAIRIE DES LILAS <-> CHATELET) - Retour,1
2066,Belleville,52800,7,1,11,(MAIRIE DES LILAS <-> CHATELET) - Retour,1
1758,Pyrénées,52920,8,1,11,(MAIRIE DES LILAS <-> CHATELET) - Retour,1
1905,Jourdain,52980,9,1,11,(MAIRIE DES LILAS <-> CHATELET) - Retour,1
1798,Place des Fêtes,53040,10,1,11,(MAIRIE DES LILAS <-> CHATELET) - Retour,1
1682,Télégraphe,53100,11,1,11,(MAIRIE DES LILAS <-> CHATELET) - Retour,1
1753,Porte des Lilas,53160,12,1,11,(MAIRIE DES LILAS <-> CHATELET) - Retour,1
1875,Mairie des Lilas,53280,13,1,11,(MAIRIE DES LILAS <-> CHATELET) - Retour,1
1870,Mairie d'Issy,53100,1,0,12,(MAIRIE D'ISSY <-> MAIRIE D'AUBERVILLIERS) - Aller,1
1986,Corentin-Celton,53160,2,0,12,(MAIRIE D'ISSY <-> MAIRIE D'AUBERVILLIERS) - Aller,1
1750,Porte de Versailles,53280,3,0,12,(MAIRIE D'ISSY <-> MAIRIE D'AUBERVILLIERS) - Aller,1
1984,Convention,53400,4,0,12,(MAIRIE D'ISSY <-> MAIRIE D'AUBERVILLIERS) - Aller,1
1691,Vaugirard (Adolphe Chérioux),53460,5,0,12,(MAIRIE D'ISSY <-> MAIRIE D'AUBERVILLIERS) - Aller,1
1632,Volontaires,53520,6,0,12,(MAIRIE D'ISSY <-> MAIRIE D'AUBERVILLIERS) - Aller,1
1782,Pasteur,53580,7,0,12,(MAIRIE D'ISSY <-> MAIRIE D'AUBERVILLIERS) - Aller,1
1938,Falguière,53700,8,0,12,(MAIRIE D'ISSY <-> MAIRIE D'AUBERVILLIERS) - Aller,1
1826,Montparnasse-Bienvenue,53760,9,0,12,(MAIRIE D'ISSY <-> MAIRIE D'AUBERVILLIERS) - Aller,1
1842,Notre-Dame des Champs,53820,10,0,12,(MAIRIE D'ISSY <-> MAIRIE D'AUBERVILLIERS) - Aller,1
1646,Rennes,53880,11,0,12,(MAIRIE D'ISSY <-> MAIRIE D'AUBERVILLIERS) - Aller,1
1667,Sèvres-Babylone,53940,12,0,12,(MAIRIE D'ISSY <-> MAIRIE D'AUBERVILLIERS) - Aller,1
1710,Rue du Bac,54060,13,0,12,(MAIRIE D'ISSY <-> MAIRIE D'AUBERVILLIERS) - Aller,1
1669,Solférino,54120,14,0,12,(MAIRIE D'ISSY <-> MAIRIE D'AUBERVILLIERS) - Aller,1
2052,Assemblée Nationale,54180,15,0,12,(MAIRIE D'ISSY <-> MAIRIE D'AUBERVILLIERS) - Aller,1
1982,Concorde,54240,16,0,12,(MAIRIE D'ISSY <-> MAIRIE D'AUBERVILLIERS) - Aller,1
1869,Madeleine,54360,17,0,12,(MAIRIE D'ISSY <-> MAIRIE D'AUBERVILLIERS) - Aller,1
1723,Saint-Lazare,54480,18,0,12,(MAIRIE D'ISSY <-> MAIRIE D'AUBERVILLIERS) - Aller,1
1686,Trinité-d'Estienne d'Orves,54540,19,0,12,(MAIRIE D'ISSY <-> MAIRIE D'AUBERVILLIERS) - Aller,1
1841,Notre-Dame de Lorette,54600,20,0,12,(MAIRIE D'ISSY <-> MAIRIE D'AUBERVILLIERS) - Aller,1
1720,Saint-Georges,54660,21,0,12,(MAIRIE D'ISSY <-> MAIRIE D'AUBERVILLIERS) - Aller,1
1792,Pigalle,54780,22,0,12,(MAIRIE D'ISSY <-> MAIRIE D'AUBERVILLIERS) - Aller,1
2037,Abbesses,54840,23,0,12,(MAIRIE D'ISSY <-> MAIRIE D'AUBERVILLIERS) - Aller,1
1920,Lamarck-Caulaincourt,54900,24,0,12,(MAIRIE D'ISSY <-> MAIRIE D'AUBERVILLIERS) - Aller,1
1906,Jules Joffrin,55020,25,0,12,(MAIRIE D'ISSY <-> MAIRIE D'AUBERVILLIERS) - Aller,1
1883,Marcadet-Poissonniers,55080,26,0,12,(MAIRIE D'ISSY <-> MAIRIE D'AUBERVILLIERS) - Aller,1
1886,Marx-Dormoy,55140,27,0,12,(MAIRIE D'ISSY <-> MAIRIE D'AUBERVILLIERS) - Aller,1
1743,Porte de la Chapelle,55260,28,0,12,(MAIRIE D'ISSY <-> MAIRIE D'AUBERVILLIERS) - Aller,1
3901291,Front Populaire,55440,29,0,12,(MAIRIE D'ISSY <-> MAIRIE D'AUBERVILLIERS) - Aller,1
9999999,Aimé Césaire,55500,30,0,12,(MAIRIE D'ISSY <-> MAIRIE D'AUBERVILLIERS) - Aller,1
9999998,Mairie d'Aubervilliers,55560,31,0,12,(MAIRIE D'ISSY <-> MAIRIE D'AUBERVILLIERS) - Aller,1
9999998,Mairie d'Aubervilliers,55560,1,1,12,(MAIRIE D'ISSY <-> MAIRIE D'AUBERVILLIERS) - Retour,1
9999999,Aimé Césaire,55620,2,1,12,(MAIRIE D'ISSY <-> MAIRIE D'AUBERVILLIERS) - Retour,1
3901291,Front Populaire,55680,3,1,12,(MAIRIE D'ISSY <-> MAIRIE D'AUBERVILLIERS) - Retour,1
1743,Porte de la Chapelle,55860,4,1,12,(MAIRIE D'ISSY <-> MAIRIE D'AUBERVILLIERS) - Retour,1
1886,Marx-Dormoy,55980,5,1,12,(MAIRIE D'ISSY <-> MAIRIE D'AUBERVILLIERS) - Retour,1
1883,Marcadet-Poissonniers,56040,6,1,12,(MAIRIE D'ISSY <-> MAIRIE D'AUBERVILLIERS) - Retour,1
1906,Jules Joffrin,56100,7,1,12,(MAIRIE D'ISSY <-> MAIRIE D'AUBERVILLIERS) - Retour,1
1920,Lamarck-Caulaincourt,56220,8,1,12,(MAIRIE D'ISSY <-> MAIRIE D'AUBERVILLIERS) - Retour,1
2037,Abbesses,56280,9,1,12,(MAIRIE D'ISSY <-> MAIRIE D'AUBERVILLIERS) - Retour,1
1792,Pigalle,56340,10,1,12,(MAIRIE D'ISSY <-> MAIRIE D'AUBERVILLIERS) - Retour,1
1720,Saint-Georges,56460,11,1,12,(MAIRIE D'ISSY <-> MAIRIE D'AUBERVILLIERS) - Retour,1
1841,Notre-Dame de Lorette,56520,12,1,12,(MAIRIE D'ISSY <-> MAIRIE D'AUBERVILLIERS) - Retour,1
1686,Trinité-d'Estienne d'Orves,56580,13,1,12,(MAIRIE D'ISSY <-> MAIRIE D'AUBERVILLIERS) - Retour,1
1723,Saint-Lazare,56640,14,1,12,(MAIRIE D'ISSY <-> MAIRIE D'AUBERVILLIERS) - Retour,1
1869,Madeleine,56760,15,1,12,(MAIRIE D'ISSY <-> MAIRIE D'AUBERVILLIERS) - Retour,1
1982,Concorde,56880,16,1,12,(MAIRIE D'ISSY <-> MAIRIE D'AUBERVILLIERS) - Retour,1
2052,Assemblée Nationale,56940,17,1,12,(MAIRIE D'ISSY <-> MAIRIE D'AUBERVILLIERS) - Retour,1
1669,Solférino,57000,18,1,12,(MAIRIE D'ISSY <-> MAIRIE D'AUBERVILLIERS) - Retour,1
1710,Rue du Bac,57060,19,1,12,(MAIRIE D'ISSY <-> MAIRIE D'AUBERVILLIERS) - Retour,1
1667,Sèvres-Babylone,57180,20,1,12,(MAIRIE D'ISSY <-> MAIRIE D'AUBERVILLIERS) - Retour,1
1646,Rennes,57240,21,1,12,(MAIRIE D'ISSY <-> MAIRIE D'AUBERVILLIERS) - Retour,1
1842,Notre-Dame des Champs,57300,22,1,12,(MAIRIE D'ISSY <-> MAIRIE D'AUBERVILLIERS) - Retour,1
1826,Montparnasse-Bienvenue,57360,23,1,12,(MAIRIE D'ISSY <-> MAIRIE D'AUBERVILLIERS) - Retour,1
1938,Falguière,57420,24,1,12,(MAIRIE D'ISSY <-> MAIRIE D'AUBERVILLIERS) - Retour,1
1782,Pasteur,57540,25,1,12,(MAIRIE D'ISSY <-> MAIRIE D'AUBERVILLIERS) - Retour,1
1632,Volontaires,57600,26,1,12,(MAIRIE D'ISSY <-> MAIRIE D'AUBERVILLIERS) - Retour,1
1691,Vaugirard (Adolphe Chérioux),57660,27,1,12,(MAIRIE D'ISSY <-> MAIRIE D'AUBERVILLIERS) - Retour,1
1984,Convention,57720,28,1,12,(MAIRIE D'ISSY <-> MAIRIE D'AUBERVILLIERS) - Retour,1
1750,Porte de Versailles,57840,29,1,12,(MAIRIE D'ISSY <-> MAIRIE D'AUBERVILLIERS) - Retour,1
1986,Corentin-Celton,57960,30,1,12,(MAIRIE D'ISSY <-> MAIRIE D'AUBERVILLIERS) - Retour,1
1870,Mairie d'Issy,58020,31,1,12,(MAIRIE D'ISSY <-> MAIRIE D'AUBERVILLIERS) - Retour,1
1969,Châtillon Montrouge,66300,1,0,13,(CHATILLON - MONTROUGE <-> ST-DENIS-UNIVERSITE/LES COURTILLES) - Aller,1
1880,Malakoff-Rue Etienne Dolet,66420,2,0,13,(CHATILLON - MONTROUGE <-> ST-DENIS-UNIVERSITE/LES COURTILLES) - Aller,1
1879,Malakoff-Plateau de Vanves,66480,3,0,13,(CHATILLON - MONTROUGE <-> ST-DENIS-UNIVERSITE/LES COURTILLES) - Aller,1
1749,Porte de Vanves,66600,4,0,13,(CHATILLON - MONTROUGE <-> ST-DENIS-UNIVERSITE/LES COURTILLES) - Aller,1
1799,Plaisance,66720,5,0,13,(CHATILLON - MONTROUGE <-> ST-DENIS-UNIVERSITE/LES COURTILLES) - Aller,1
1787,Pernety,66780,6,0,13,(CHATILLON - MONTROUGE <-> ST-DENIS-UNIVERSITE/LES COURTILLES) - Aller,1
1948,Gaîté,66840,7,0,13,(CHATILLON - MONTROUGE <-> ST-DENIS-UNIVERSITE/LES COURTILLES) - Aller,1
1827,Montparnasse-Bienvenue,66960,8,0,13,(CHATILLON - MONTROUGE <-> ST-DENIS-UNIVERSITE/LES COURTILLES) - Aller,1
1928,Duroc,67020,9,0,13,(CHATILLON - MONTROUGE <-> ST-DENIS-UNIVERSITE/LES COURTILLES) - Aller,1
1719,Saint-François-Xavier,67080,10,0,13,(CHATILLON - MONTROUGE <-> ST-DENIS-UNIVERSITE/LES COURTILLES) - Aller,1
1638,Varenne,67200,11,0,13,(CHATILLON - MONTROUGE <-> ST-DENIS-UNIVERSITE/LES COURTILLES) - Aller,1
1897,Invalides,67260,12,0,13,(CHATILLON - MONTROUGE <-> ST-DENIS-UNIVERSITE/LES COURTILLES) - Aller,1
2025,Champs-Elysées-Clémenceau,67320,13,0,13,(CHATILLON - MONTROUGE <-> ST-DENIS-UNIVERSITE/LES COURTILLES) - Aller,1
1820,Miromesnil,67440,14,0,13,(CHATILLON - MONTROUGE <-> ST-DENIS-UNIVERSITE/LES COURTILLES) - Aller,1
1724,Saint-Lazare,67560,15,0,13,(CHATILLON - MONTROUGE <-> ST-DENIS-UNIVERSITE/LES COURTILLES) - Aller,1
1858,Liège,67680,16,0,13,(CHATILLON - MONTROUGE <-> ST-DENIS-UNIVERSITE/LES COURTILLES) - Aller,1
1796,Place de Clichy,67740,17,0,13,(CHATILLON - MONTROUGE <-> ST-DENIS-UNIVERSITE/LES COURTILLES) - Aller,1
1656,La Fourche,67800,18,0,13,(CHATILLON - MONTROUGE <-> ST-DENIS-UNIVERSITE/LES COURTILLES) - Aller,1
2009,Brochant,67920,19,0,13,(CHATILLON - MONTROUGE <-> ST-DENIS-UNIVERSITE/LES COURTILLES) - Aller,1
1741,Porte de Clichy,68040,20,0,13,(CHATILLON - MONTROUGE <-> ST-DENIS-UNIVERSITE/LES COURTILLES) - Aller,1
1872,Mairie de Clichy,68100,21,0,13,(CHATILLON - MONTROUGE <-> ST-DENIS-UNIVERSITE/LES COURTILLES) - Aller,1
1947,Gabriel-Péri,68280,22,0,13,(CHATILLON - MONTROUGE <-> ST-DENIS-UNIVERSITE/LES COURTILLES) - Aller,1
1662795,Les Agnettes,68400,23,0,13,(CHATILLON - MONTROUGE <-> ST-DENIS-UNIVERSITE/LES COURTILLES) - Aller,1
1662797,Asnières-Gennevilliers Les Courtilles,68520,24,0,13,(CHATILLON - MONTROUGE <-> ST-DENIS-UNIVERSITE/LES COURTILLES) - Aller,1
1969,Châtillon Montrouge,66120,1,0,13,(CHATILLON - MONTROUGE <-> ST-DENIS-UNIVERSITE/LES COURTILLES) - Aller,1
1880,Malakoff-Rue Etienne Dolet,66180,2,0,13,(CHATILLON - MONTROUGE <-> ST-DENIS-UNIVERSITE/LES COURTILLES) - Aller,1
1879,Malakoff-Plateau de Vanves,66300,3,0,13,(CHATILLON - MONTROUGE <-> ST-DENIS-UNIVERSITE/LES COURTILLES) - Aller,1
1749,Porte de Vanves,66420,4,0,13,(CHATILLON - MONTROUGE <-> ST-DENIS-UNIVERSITE/LES COURTILLES) - Aller,1
1799,Plaisance,66480,5,0,13,(CHATILLON - MONTROUGE <-> ST-DENIS-UNIVERSITE/LES COURTILLES) - Aller,1
1787,Pernety,66540,6,0,13,(CHATILLON - MONTROUGE <-> ST-DENIS-UNIVERSITE/LES COURTILLES) - Aller,1
1948,Gaîté,66660,7,0,13,(CHATILLON - MONTROUGE <-> ST-DENIS-UNIVERSITE/LES COURTILLES) - Aller,1
1827,Montparnasse-Bienvenue,66720,8,0,13,(CHATILLON - MONTROUGE <-> ST-DENIS-UNIVERSITE/LES COURTILLES) - Aller,1
1928,Duroc,66840,9,0,13,(CHATILLON - MONTROUGE <-> ST-DENIS-UNIVERSITE/LES COURTILLES) - Aller,1
1719,Saint-François-Xavier,66900,10,0,13,(CHATILLON - MONTROUGE <-> ST-DENIS-UNIVERSITE/LES COURTILLES) - Aller,1
1638,Varenne,66960,11,0,13,(CHATILLON - MONTROUGE <-> ST-DENIS-UNIVERSITE/LES COURTILLES) - Aller,1
1897,Invalides,67020,12,0,13,(CHATILLON - MONTROUGE <-> ST-DENIS-UNIVERSITE/LES COURTILLES) - Aller,1
2025,Champs-Elysées-Clémenceau,67140,13,0,13,(CHATILLON - MONTROUGE <-> ST-DENIS-UNIVERSITE/LES COURTILLES) - Aller,1
1820,Miromesnil,67260,14,0,13,(CHATILLON - MONTROUGE <-> ST-DENIS-UNIVERSITE/LES COURTILLES) - Aller,1
1724,Saint-Lazare,67380,15,0,13,(CHATILLON - MONTROUGE <-> ST-DENIS-UNIVERSITE/LES COURTILLES) - Aller,1
1858,Liège,67440,16,0,13,(CHATILLON - MONTROUGE <-> ST-DENIS-UNIVERSITE/LES COURTILLES) - Aller,1
1796,Place de Clichy,67560,17,0,13,(CHATILLON - MONTROUGE <-> ST-DENIS-UNIVERSITE/LES COURTILLES) - Aller,1
1656,La Fourche,67620,18,0,13,(CHATILLON - MONTROUGE <-> ST-DENIS-UNIVERSITE/LES COURTILLES) - Aller,1
1888,Guy-Môquet,67680,19,0,13,(CHATILLON - MONTROUGE <-> ST-DENIS-UNIVERSITE/LES COURTILLES) - Aller,1
1748,Porte de Saint-Ouen,67800,20,0,13,(CHATILLON - MONTROUGE <-> ST-DENIS-UNIVERSITE/LES COURTILLES) - Aller,1
1959,Garibaldi,67920,21,0,13,(CHATILLON - MONTROUGE <-> ST-DENIS-UNIVERSITE/LES COURTILLES) - Aller,1
1874,Mairie de Saint-Ouen,67980,22,0,13,(CHATILLON - MONTROUGE <-> ST-DENIS-UNIVERSITE/LES COURTILLES) - Aller,1
1692060,Carrefour-Pleyel,68100,23,0,13,(CHATILLON - MONTROUGE <-> ST-DENIS-UNIVERSITE/LES COURTILLES) - Aller,1
1717,Saint-Denis - Porte de Paris,68220,24,0,13,(CHATILLON - MONTROUGE <-> ST-DENIS-UNIVERSITE/LES COURTILLES) - Aller,1
1716,Basilique de Saint-Denis,68340,25,0,13,(CHATILLON - MONTROUGE <-> ST-DENIS-UNIVERSITE/LES COURTILLES) - Aller,1
140078,Saint-Denis-Université,68460,26,0,13,(CHATILLON - MONTROUGE <-> ST-DENIS-UNIVERSITE/LES COURTILLES) - Aller,1
1662797,Asnières-Gennevilliers Les Courtilles,68520,1,1,13,(CHATILLON - MONTROUGE <-> ST-DENIS-UNIVERSITE/LES COURTILLES) - Retour,1
1662795,Les Agnettes,68640,2,1,13,(CHATILLON - MONTROUGE <-> ST-DENIS-UNIVERSITE/LES COURTILLES) - Retour,1
1947,Gabriel-Péri,68760,3,1,13,(CHATILLON - MONTROUGE <-> ST-DENIS-UNIVERSITE/LES COURTILLES) - Retour,1
1872,Mairie de Clichy,68940,4,1,13,(CHATILLON - MONTROUGE <-> ST-DENIS-UNIVERSITE/LES COURTILLES) - Retour,1
1741,Porte de Clichy,69000,5,1,13,(CHATILLON - MONTROUGE <-> ST-DENIS-UNIVERSITE/LES COURTILLES) - Retour,1
2009,Brochant,69120,6,1,13,(CHATILLON - MONTROUGE <-> ST-DENIS-UNIVERSITE/LES COURTILLES) - Retour,1
1656,La Fourche,69240,7,1,13,(CHATILLON - MONTROUGE <-> ST-DENIS-UNIVERSITE/LES COURTILLES) - Retour,1
1796,Place de Clichy,69300,8,1,13,(CHATILLON - MONTROUGE <-> ST-DENIS-UNIVERSITE/LES COURTILLES) - Retour,1
1858,Liège,69360,9,1,13,(CHATILLON - MONTROUGE <-> ST-DENIS-UNIVERSITE/LES COURTILLES) - Retour,1
1724,Saint-Lazare,69480,10,1,13,(CHATILLON - MONTROUGE <-> ST-DENIS-UNIVERSITE/LES COURTILLES) - Retour,1
1820,Miromesnil,69600,11,1,13,(CHATILLON - MONTROUGE <-> ST-DENIS-UNIVERSITE/LES COURTILLES) - Retour,1
2025,Champs-Elysées-Clémenceau,69720,12,1,13,(CHATILLON - MONTROUGE <-> ST-DENIS-UNIVERSITE/LES COURTILLES) - Retour,1
1897,Invalides,69780,13,1,13,(CHATILLON - MONTROUGE <-> ST-DENIS-UNIVERSITE/LES COURTILLES) - Retour,1
1638,Varenne,69840,14,1,13,(CHATILLON - MONTROUGE <-> ST-DENIS-UNIVERSITE/LES COURTILLES) - Retour,1
1719,Saint-François-Xavier,69960,15,1,13,(CHATILLON - MONTROUGE <-> ST-DENIS-UNIVERSITE/LES COURTILLES) - Retour,1
1928,Duroc,70020,16,1,13,(CHATILLON - MONTROUGE <-> ST-DENIS-UNIVERSITE/LES COURTILLES) - Retour,1
1827,Montparnasse-Bienvenue,70080,17,1,13,(CHATILLON - MONTROUGE <-> ST-DENIS-UNIVERSITE/LES COURTILLES) - Retour,1
1948,Gaîté,70200,18,1,13,(CHATILLON - MONTROUGE <-> ST-DENIS-UNIVERSITE/LES COURTILLES) - Retour,1
1787,Pernety,70260,19,1,13,(CHATILLON - MONTROUGE <-> ST-DENIS-UNIVERSITE/LES COURTILLES) - Retour,1
1799,Plaisance,70320,20,1,13,(CHATILLON - MONTROUGE <-> ST-DENIS-UNIVERSITE/LES COURTILLES) - Retour,1
1749,Porte de Vanves,70440,21,1,13,(CHATILLON - MONTROUGE <-> ST-DENIS-UNIVERSITE/LES COURTILLES) - Retour,1
1879,Malakoff-Plateau de Vanves,70560,22,1,13,(CHATILLON - MONTROUGE <-> ST-DENIS-UNIVERSITE/LES COURTILLES) - Retour,1
1880,Malakoff-Rue Etienne Dolet,70620,23,1,13,(CHATILLON - MONTROUGE <-> ST-DENIS-UNIVERSITE/LES COURTILLES) - Retour,1
1969,Châtillon Montrouge,70740,24,1,13,(CHATILLON - MONTROUGE <-> ST-DENIS-UNIVERSITE/LES COURTILLES) - Retour,1
140078,Saint-Denis-Université,68460,1,1,13,(CHATILLON - MONTROUGE <-> ST-DENIS-UNIVERSITE/LES COURTILLES) - Retour,1
1716,Basilique de Saint-Denis,68580,2,1,13,(CHATILLON - MONTROUGE <-> ST-DENIS-UNIVERSITE/LES COURTILLES) - Retour,1
1717,Saint-Denis - Porte de Paris,68700,3,1,13,(CHATILLON - MONTROUGE <-> ST-DENIS-UNIVERSITE/LES COURTILLES) - Retour,1
1692060,Carrefour-Pleyel,68820,4,1,13,(CHATILLON - MONTROUGE <-> ST-DENIS-UNIVERSITE/LES COURTILLES) - Retour,1
1874,Mairie de Saint-Ouen,68940,5,1,13,(CHATILLON - MONTROUGE <-> ST-DENIS-UNIVERSITE/LES COURTILLES) - Retour,1
1959,Garibaldi,69000,6,1,13,(CHATILLON - MONTROUGE <-> ST-DENIS-UNIVERSITE/LES COURTILLES) - Retour,1
1748,Porte de Saint-Ouen,69120,7,1,13,(CHATILLON - MONTROUGE <-> ST-DENIS-UNIVERSITE/LES COURTILLES) - Retour,1
1888,Guy-Môquet,69240,8,1,13,(CHATILLON - MONTROUGE <-> ST-DENIS-UNIVERSITE/LES COURTILLES) - Retour,1
1656,La Fourche,69300,9,1,13,(CHATILLON - MONTROUGE <-> ST-DENIS-UNIVERSITE/LES COURTILLES) - Retour,1
1796,Place de Clichy,69360,10,1,13,(CHATILLON - MONTROUGE <-> ST-DENIS-UNIVERSITE/LES COURTILLES) - Retour,1
1858,Liège,69480,11,1,13,(CHATILLON - MONTROUGE <-> ST-DENIS-UNIVERSITE/LES COURTILLES) - Retour,1
1724,Saint-Lazare,69540,12,1,13,(CHATILLON - MONTROUGE <-> ST-DENIS-UNIVERSITE/LES COURTILLES) - Retour,1
1820,Miromesnil,69660,13,1,13,(CHATILLON - MONTROUGE <-> ST-DENIS-UNIVERSITE/LES COURTILLES) - Retour,1
2025,Champs-Elysées-Clémenceau,69780,14,1,13,(CHATILLON - MONTROUGE <-> ST-DENIS-UNIVERSITE/LES COURTILLES) - Retour,1
1897,Invalides,69900,15,1,13,(CHATILLON - MONTROUGE <-> ST-DENIS-UNIVERSITE/LES COURTILLES) - Retour,1
1638,Varenne,69960,16,1,13,(CHATILLON - MONTROUGE <-> ST-DENIS-UNIVERSITE/LES COURTILLES) - Retour,1
1719,Saint-François-Xavier,70020,17,1,13,(CHATILLON - MONTROUGE <-> ST-DENIS-UNIVERSITE/LES COURTILLES) - Retour,1
1928,Duroc,70080,18,1,13,(CHATILLON - MONTROUGE <-> ST-DENIS-UNIVERSITE/LES COURTILLES) - Retour,1
1827,Montparnasse-Bienvenue,70200,19,1,13,(CHATILLON - MONTROUGE <-> ST-DENIS-UNIVERSITE/LES COURTILLES) - Retour,1
1948,Gaîté,70260,20,1,13,(CHATILLON - MONTROUGE <-> ST-DENIS-UNIVERSITE/LES COURTILLES) - Retour,1
1787,Pernety,70380,21,1,13,(CHATILLON - MONTROUGE <-> ST-DENIS-UNIVERSITE/LES COURTILLES) - Retour,1
1799,Plaisance,70440,22,1,13,(CHATILLON - MONTROUGE <-> ST-DENIS-UNIVERSITE/LES COURTILLES) - Retour,1
1749,Porte de Vanves,70500,23,1,13,(CHATILLON - MONTROUGE <-> ST-DENIS-UNIVERSITE/LES COURTILLES) - Retour,1
1879,Malakoff-Plateau de Vanves,70620,24,1,13,(CHATILLON - MONTROUGE <-> ST-DENIS-UNIVERSITE/LES COURTILLES) - Retour,1
1880,Malakoff-Rue Etienne Dolet,70740,25,1,13,(CHATILLON - MONTROUGE <-> ST-DENIS-UNIVERSITE/LES COURTILLES) - Retour,1
1969,Châtillon Montrouge,70860,26,1,13,(CHATILLON - MONTROUGE <-> ST-DENIS-UNIVERSITE/LES COURTILLES) - Retour,1
9999997,Mairie de Saint-Ouen,40260,1,0,14,(MAIRIE DE SAINT-OUEN <-> OLYMPIADES) - Aller,1
9999996,Saint-Ouen,40320,2,0,14,(MAIRIE DE SAINT-OUEN <-> OLYMPIADES) - Aller,1
9999995,Porte de Clichy,40380,3,0,14,(MAIRIE DE SAINT-OUEN <-> OLYMPIADES) - Aller,1
9999994,Pont Cardinet,40440,4,0,14,(MAIRIE DE SAINT-OUEN <-> OLYMPIADES) - Aller,1
1166840,Saint-Lazare,40500,5,0,14,(MAIRIE DE SAINT-OUEN <-> OLYMPIADES) - Aller,1
1166838,Madeleine,40560,6,0,14,(MAIRIE DE SAINT-OUEN <-> OLYMPIADES) - Aller,1
6129304,Pyramides,40680,7,0,14,(MAIRIE DE SAINT-OUEN <-> OLYMPIADES) - Aller,1
1166834,Châtelet,40800,8,0,14,(MAIRIE DE SAINT-OUEN <-> OLYMPIADES) - Aller,1
1166832,Gare de Lyon,40980,9,0,14,(MAIRIE DE SAINT-OUEN <-> OLYMPIADES) - Aller,1
1166830,Bercy,41100,10,0,14,(MAIRIE DE SAINT-OUEN <-> OLYMPIADES) - Aller,1
1166828,Cour Saint-Emilion,41160,11,0,14,(MAIRIE DE SAINT-OUEN <-> OLYMPIADES) - Aller,1
1166826,Bibliothèque-François Mitterrand,41280,12,0,14,(MAIRIE DE SAINT-OUEN <-> OLYMPIADES) - Aller,1
1166824,Olympiades,41400,13,0,14,(MAIRIE DE SAINT-OUEN <-> OLYMPIADES) - Aller,1
1166824,Olympiades,41400,1,1,14,(MAIRIE DE SAINT-OUEN <-> OLYMPIADES) - Retour,1
1166826,Bibliothèque-François Mitterrand,41520,2,1,14,(MAIRIE DE SAINT-OUEN <-> OLYMPIADES) - Retour,1
1166828,Cour Saint-Emilion,41640,3,1,14,(MAIRIE DE SAINT-OUEN <-> OLYMPIADES) - Retour,1
1166830,Bercy,41700,4,1,14,(MAIRIE DE SAINT-OUEN <-> OLYMPIADES) - Retour,1
1166832,Gare de Lyon,41820,5,1,14,(MAIRIE DE SAINT-OUEN <-> OLYMPIADES) - Retour,1
1166834,Châtelet,42000,6,1,14,(MAIRIE DE SAINT-OUEN <-> OLYMPIADES) - Retour,1
6129304,Pyramides,42120,7,1,14,(MAIRIE DE SAINT-OUEN <-> OLYMPIADES) - Retour,1
1166838,Madeleine,42240,8,1,14,(MAIRIE DE SAINT-OUEN <-> OLYMPIADES) - Retour,1
1166840,Saint-Lazare,42300,9,1,14,(MAIRIE DE SAINT-OUEN <-> OLYMPIADES) - Retour,1
9999994,Pont Cardinet,42360,10,1,14,(MAIRIE DE SAINT-OUEN <-> OLYMPIADES) - Retour,1
9999995,Porte de Clichy,42420,11,1,14,(MAIRIE DE SAINT-OUEN <-> OLYMPIADES) - Retour,1
9999996,Saint-Ouen,42480,12,1,14,(MAIRIE DE SAINT-OUEN <-> OLYMPIADES) - Retour,1
9999997,Mairie de Saint-Ouen,42540,13,1,14,(MAIRIE DE SAINT-OUEN <-> OLYMPIADES) - Retour,1
1670,Saint-Germain-en-Laye,44700,1,0,A,(CERGY-POISSY-SAINT GERMAIN EN LAYE <-> MARNE LA VALLEE-BOISSY SAINT LEGER) - Aller,2
1851,Le Vésinet-Le Pecq,44880,2,0,A,(CERGY-POISSY-SAINT GERMAIN EN LAYE <-> MARNE LA VALLEE-BOISSY SAINT LEGER) - Aller,2
1850,Le Vésinet-Centre,45000,3,0,A,(CERGY-POISSY-SAINT GERMAIN EN LAYE <-> MARNE LA VALLEE-BOISSY SAINT LEGER) - Aller,2
1970,Chatou-Croissy,45180,4,0,A,(CERGY-POISSY-SAINT GERMAIN EN LAYE <-> MARNE LA VALLEE-BOISSY SAINT LEGER) - Aller,2
1713,Rueil-Malmaison,45300,5,0,A,(CERGY-POISSY-SAINT GERMAIN EN LAYE <-> MARNE LA VALLEE-BOISSY SAINT LEGER) - Aller,2
1831,Nanterre-Ville,45420,6,0,A,(CERGY-POISSY-SAINT GERMAIN EN LAYE <-> MARNE LA VALLEE-BOISSY SAINT LEGER) - Aller,2
1830,Nanterre-Université,45540,7,0,A,(CERGY-POISSY-SAINT GERMAIN EN LAYE <-> MARNE LA VALLEE-BOISSY SAINT LEGER) - Aller,2
1829,Nanterre-Préfecture,45720,8,0,A,(CERGY-POISSY-SAINT GERMAIN EN LAYE <-> MARNE LA VALLEE-BOISSY SAINT LEGER) - Aller,2
1913,La Défense (Grande Arche),45840,9,0,A,(CERGY-POISSY-SAINT GERMAIN EN LAYE <-> MARNE LA VALLEE-BOISSY SAINT LEGER) - Aller,2
2084,Charles de Gaulle-Etoile,46080,10,0,A,(CERGY-POISSY-SAINT GERMAIN EN LAYE <-> MARNE LA VALLEE-BOISSY SAINT LEGER) - Aller,2
2053,Auber,46260,11,0,A,(CERGY-POISSY-SAINT GERMAIN EN LAYE <-> MARNE LA VALLEE-BOISSY SAINT LEGER) - Aller,2
1967,Châtelet-Les Halles,46440,12,0,A,(CERGY-POISSY-SAINT GERMAIN EN LAYE <-> MARNE LA VALLEE-BOISSY SAINT LEGER) - Aller,2
1956,Gare de Lyon,46620,13,0,A,(CERGY-POISSY-SAINT GERMAIN EN LAYE <-> MARNE LA VALLEE-BOISSY SAINT LEGER) - Aller,2
1835,Nation,46740,14,0,A,(CERGY-POISSY-SAINT GERMAIN EN LAYE <-> MARNE LA VALLEE-BOISSY SAINT LEGER) - Aller,2
1631,Vincennes,46980,15,0,A,(CERGY-POISSY-SAINT GERMAIN EN LAYE <-> MARNE LA VALLEE-BOISSY SAINT LEGER) - Aller,2
1943,Fontenay-sous-Bois,47100,16,0,A,(CERGY-POISSY-SAINT GERMAIN EN LAYE <-> MARNE LA VALLEE-BOISSY SAINT LEGER) - Aller,2
1838,Nogent-sur-Marne,47220,17,0,A,(CERGY-POISSY-SAINT GERMAIN EN LAYE <-> MARNE LA VALLEE-BOISSY SAINT LEGER) - Aller,2
1904,Joinville-le-Pont,47400,18,0,A,(CERGY-POISSY-SAINT GERMAIN EN LAYE <-> MARNE LA VALLEE-BOISSY SAINT LEGER) - Aller,2
1671,Saint-Maur Créteil,47520,19,0,A,(CERGY-POISSY-SAINT GERMAIN EN LAYE <-> MARNE LA VALLEE-BOISSY SAINT LEGER) - Aller,2
1848,Le Parc de Saint-Maur,47640,20,0,A,(CERGY-POISSY-SAINT GERMAIN EN LAYE <-> MARNE LA VALLEE-BOISSY SAINT LEGER) - Aller,2
2024,Champigny,47760,21,0,A,(CERGY-POISSY-SAINT GERMAIN EN LAYE <-> MARNE LA VALLEE-BOISSY SAINT LEGER) - Aller,2
1919,La Varenne-Chennevières,47880,22,0,A,(CERGY-POISSY-SAINT GERMAIN EN LAYE <-> MARNE LA VALLEE-BOISSY SAINT LEGER) - Aller,2
1680,Sucy Bonneuil,48060,23,0,A,(CERGY-POISSY-SAINT GERMAIN EN LAYE <-> MARNE LA VALLEE-BOISSY SAINT LEGER) - Aller,2
2074,Boissy-Saint-Léger,48300,24,0,A,(CERGY-POISSY-SAINT GERMAIN EN LAYE <-> MARNE LA VALLEE-BOISSY SAINT LEGER) - Aller,2
2074,Boissy-Saint-Léger,48300,1,1,A,(CERGY-POISSY-SAINT GERMAIN EN LAYE <-> MARNE LA VALLEE-BOISSY SAINT LEGER) - Retour,2
1680,Sucy Bonneuil,48540,2,1,A,(CERGY-POISSY-SAINT GERMAIN EN LAYE <-> MARNE LA VALLEE-BOISSY SAINT LEGER) - Retour,2
1919,La Varenne-Chennevières,48720,3,1,A,(CERGY-POISSY-SAINT GERMAIN EN LAYE <-> MARNE LA VALLEE-BOISSY SAINT LEGER) - Retour,2
2024,Champigny,48840,4,1,A,(CERGY-POISSY-SAINT GERMAIN EN LAYE <-> MARNE LA VALLEE-BOISSY SAINT LEGER) - Retour,2
1848,Le Parc de Saint-Maur,48960,5,1,A,(CERGY-POISSY-SAINT GERMAIN EN LAYE <-> MARNE LA VALLEE-BOISSY SAINT LEGER) - Retour,2
1671,Saint-Maur Créteil,49080,6,1,A,(CERGY-POISSY-SAINT GERMAIN EN LAYE <-> MARNE LA VALLEE-BOISSY SAINT LEGER) - Retour,2
1904,Joinville-le-Pont,49200,7,1,A,(CERGY-POISSY-SAINT GERMAIN EN LAYE <-> MARNE LA VALLEE-BOISSY SAINT LEGER) - Retour,2
1838,Nogent-sur-Marne,49380,8,1,A,(CERGY-POISSY-SAINT GERMAIN EN LAYE <-> MARNE LA VALLEE-BOISSY SAINT LEGER) - Retour,2
1943,Fontenay-sous-Bois,49500,9,1,A,(CERGY-POISSY-SAINT GERMAIN EN LAYE <-> MARNE LA VALLEE-BOISSY SAINT LEGER) - Retour,2
1631,Vincennes,49620,10,1,A,(CERGY-POISSY-SAINT GERMAIN EN LAYE <-> MARNE LA VALLEE-BOISSY SAINT LEGER) - Retour,2
1835,Nation,49860,11,1,A,(CERGY-POISSY-SAINT GERMAIN EN LAYE <-> MARNE LA VALLEE-BOISSY SAINT LEGER) - Retour,2
1956,Gare de Lyon,49980,12,1,A,(CERGY-POISSY-SAINT GERMAIN EN LAYE <-> MARNE LA VALLEE-BOISSY SAINT LEGER) - Retour,2
1967,Châtelet-Les Halles,50160,13,1,A,(CERGY-POISSY-SAINT GERMAIN EN LAYE <-> MARNE LA VALLEE-BOISSY SAINT LEGER) - Retour,2
2053,Auber,50340,14,1,A,(CERGY-POISSY-SAINT GERMAIN EN LAYE <-> MARNE LA VALLEE-BOISSY SAINT LEGER) - Retour,2
2084,Charles de Gaulle-Etoile,50520,15,1,A,(CERGY-POISSY-SAINT GERMAIN EN LAYE <-> MARNE LA VALLEE-BOISSY SAINT LEGER) - Retour,2
1913,La Défense (Grande Arche),50760,16,1,A,(CERGY-POISSY-SAINT GERMAIN EN LAYE <-> MARNE LA VALLEE-BOISSY SAINT LEGER) - Retour,2
1829,Nanterre-Préfecture,50880,17,1,A,(CERGY-POISSY-SAINT GERMAIN EN LAYE <-> MARNE LA VALLEE-BOISSY SAINT LEGER) - Retour,2
1830,Nanterre-Université,51060,18,1,A,(CERGY-POISSY-SAINT GERMAIN EN LAYE <-> MARNE LA VALLEE-BOISSY SAINT LEGER) - Retour,2
1831,Nanterre-Ville,51180,19,1,A,(CERGY-POISSY-SAINT GERMAIN EN LAYE <-> MARNE LA VALLEE-BOISSY SAINT LEGER) - Retour,2
1713,Rueil-Malmaison,51300,20,1,A,(CERGY-POISSY-SAINT GERMAIN EN LAYE <-> MARNE LA VALLEE-BOISSY SAINT LEGER) - Retour,2
1970,Chatou-Croissy,51420,21,1,A,(CERGY-POISSY-SAINT GERMAIN EN LAYE <-> MARNE LA VALLEE-BOISSY SAINT LEGER) - Retour,2
1850,Le Vésinet-Centre,51600,22,1,A,(CERGY-POISSY-SAINT GERMAIN EN LAYE <-> MARNE LA VALLEE-BOISSY SAINT LEGER) - Retour,2
1851,Le Vésinet-Le Pecq,51720,23,1,A,(CERGY-POISSY-SAINT GERMAIN EN LAYE <-> MARNE LA VALLEE-BOISSY SAINT LEGER) - Retour,2
1670,Saint-Germain-en-Laye,51900,24,1,A,(CERGY-POISSY-SAINT GERMAIN EN LAYE <-> MARNE LA VALLEE-BOISSY SAINT LEGER) - Retour,2
48429,Cergy-Le-Haut,45120,1,0,A,(CERGY-POISSY-SAINT GERMAIN EN LAYE <-> MARNE LA VALLEE-BOISSY SAINT LEGER) - Aller,2
2022,Cergy-Saint-Christophe,45300,2,0,A,(CERGY-POISSY-SAINT GERMAIN EN LAYE <-> MARNE LA VALLEE-BOISSY SAINT LEGER) - Aller,2
2021,Cergy-Préfecture,45480,3,0,A,(CERGY-POISSY-SAINT GERMAIN EN LAYE <-> MARNE LA VALLEE-BOISSY SAINT LEGER) - Aller,2
48433,Neuville-Université,45720,4,0,A,(CERGY-POISSY-SAINT GERMAIN EN LAYE <-> MARNE LA VALLEE-BOISSY SAINT LEGER) - Aller,2
1983,Conflans-Fin d'Oise,45900,5,0,A,(CERGY-POISSY-SAINT GERMAIN EN LAYE <-> MARNE LA VALLEE-BOISSY SAINT LEGER) - Aller,2
2039,Achères-Ville,46080,6,0,A,(CERGY-POISSY-SAINT GERMAIN EN LAYE <-> MARNE LA VALLEE-BOISSY SAINT LEGER) - Aller,2
1878,Maisons-Laffitte,46440,7,0,A,(CERGY-POISSY-SAINT GERMAIN EN LAYE <-> MARNE LA VALLEE-BOISSY SAINT LEGER) - Aller,2
1643,Sartrouville,46560,8,0,A,(CERGY-POISSY-SAINT GERMAIN EN LAYE <-> MARNE LA VALLEE-BOISSY SAINT LEGER) - Aller,2
1894,Houilles Carrières-sur-Seine,46740,9,0,A,(CERGY-POISSY-SAINT GERMAIN EN LAYE <-> MARNE LA VALLEE-BOISSY SAINT LEGER) - Aller,2
1829,Nanterre-Préfecture,47100,10,0,A,(CERGY-POISSY-SAINT GERMAIN EN LAYE <-> MARNE LA VALLEE-BOISSY SAINT LEGER) - Aller,2
1913,La Défense (Grande Arche),47220,11,0,A,(CERGY-POISSY-SAINT GERMAIN EN LAYE <-> MARNE LA VALLEE-BOISSY SAINT LEGER) - Aller,2
2084,Charles de Gaulle-Etoile,47460,12,0,A,(CERGY-POISSY-SAINT GERMAIN EN LAYE <-> MARNE LA VALLEE-BOISSY SAINT LEGER) - Aller,2
2053,Auber,47640,13,0,A,(CERGY-POISSY-SAINT GERMAIN EN LAYE <-> MARNE LA VALLEE-BOISSY SAINT LEGER) - Aller,2
1967,Châtelet-Les Halles,47820,14,0,A,(CERGY-POISSY-SAINT GERMAIN EN LAYE <-> MARNE LA VALLEE-BOISSY SAINT LEGER) - Aller,2
1956,Gare de Lyon,48000,15,0,A,(CERGY-POISSY-SAINT GERMAIN EN LAYE <-> MARNE LA VALLEE-BOISSY SAINT LEGER) - Aller,2
1835,Nation,48120,16,0,A,(CERGY-POISSY-SAINT GERMAIN EN LAYE <-> MARNE LA VALLEE-BOISSY SAINT LEGER) - Aller,2
1631,Vincennes,48360,17,0,A,(CERGY-POISSY-SAINT GERMAIN EN LAYE <-> MARNE LA VALLEE-BOISSY SAINT LEGER) - Aller,2
1689,Val de Fontenay,48600,18,0,A,(CERGY-POISSY-SAINT GERMAIN EN LAYE <-> MARNE LA VALLEE-BOISSY SAINT LEGER) - Aller,2
1652,Noisy-le-Grand (Mont d'Est),48900,19,0,A,(CERGY-POISSY-SAINT GERMAIN EN LAYE <-> MARNE LA VALLEE-BOISSY SAINT LEGER) - Aller,2
1840,Noisy-Champs,49080,20,0,A,(CERGY-POISSY-SAINT GERMAIN EN LAYE <-> MARNE LA VALLEE-BOISSY SAINT LEGER) - Aller,2
1839,Noisiel,49260,21,0,A,(CERGY-POISSY-SAINT GERMAIN EN LAYE <-> MARNE LA VALLEE-BOISSY SAINT LEGER) - Aller,2
1859,Lognes,49380,22,0,A,(CERGY-POISSY-SAINT GERMAIN EN LAYE <-> MARNE LA VALLEE-BOISSY SAINT LEGER) - Aller,2
1636,Torcy,49500,23,0,A,(CERGY-POISSY-SAINT GERMAIN EN LAYE <-> MARNE LA VALLEE-BOISSY SAINT LEGER) - Aller,2
2012,Bussy-Saint-Georges,49740,24,0,A,(CERGY-POISSY-SAINT GERMAIN EN LAYE <-> MARNE LA VALLEE-BOISSY SAINT LEGER) - Aller,2
161468,Val d'europe,49980,25,0,A,(CERGY-POISSY-SAINT GERMAIN EN LAYE <-> MARNE LA VALLEE-BOISSY SAINT LEGER) - Aller,2
1885,Marne-la-Vallée Chessy,50160,26,0,A,(CERGY-POISSY-SAINT GERMAIN EN LAYE <-> MARNE LA VALLEE-BOISSY SAINT LEGER) - Aller,2
1885,Marne-la-Vallée Chessy,50160,1,1,A,(CERGY-POISSY-SAINT GERMAIN EN LAYE <-> MARNE LA VALLEE-BOISSY SAINT LEGER) - Retour,2
161468,Val d'europe,49980,2,1,A,(CERGY-POISSY-SAINT GERMAIN EN LAYE <-> MARNE LA VALLEE-BOISSY SAINT LEGER) - Retour,2
2012,Bussy-Saint-Georges,49800,3,1,A,(CERGY-POISSY-SAINT GERMAIN EN LAYE <-> MARNE LA VALLEE-BOISSY SAINT LEGER) - Retour,2
1636,Torcy,49560,4,1,A,(CERGY-POISSY-SAINT GERMAIN EN LAYE <-> MARNE LA VALLEE-BOISSY SAINT LEGER) - Retour,2
1859,Lognes,49380,5,1,A,(CERGY-POISSY-SAINT GERMAIN EN LAYE <-> MARNE LA VALLEE-BOISSY SAINT LEGER) - Retour,2
1839,Noisiel,49200,6,1,A,(CERGY-POISSY-SAINT GERMAIN EN LAYE <-> MARNE LA VALLEE-BOISSY SAINT LEGER) - Retour,2
1840,Noisy-Champs,48840,7,1,A,(CERGY-POISSY-SAINT GERMAIN EN LAYE <-> MARNE LA VALLEE-BOISSY SAINT LEGER) - Retour,2
1652,Noisy-le-Grand (Mont d'Est),48720,8,1,A,(CERGY-POISSY-SAINT GERMAIN EN LAYE <-> MARNE LA VALLEE-BOISSY SAINT LEGER) - Retour,2
1689,Val de Fontenay,48540,9,1,A,(CERGY-POISSY-SAINT GERMAIN EN LAYE <-> MARNE LA VALLEE-BOISSY SAINT LEGER) - Retour,2
1631,Vincennes,48180,10,1,A,(CERGY-POISSY-SAINT GERMAIN EN LAYE <-> MARNE LA VALLEE-BOISSY SAINT LEGER) - Retour,2
1835,Nation,48060,11,1,A,(CERGY-POISSY-SAINT GERMAIN EN LAYE <-> MARNE LA VALLEE-BOISSY SAINT LEGER) - Retour,2
1956,Gare de Lyon,47820,12,1,A,(CERGY-POISSY-SAINT GERMAIN EN LAYE <-> MARNE LA VALLEE-BOISSY SAINT LEGER) - Retour,2
1967,Châtelet-Les Halles,47640,13,1,A,(CERGY-POISSY-SAINT GERMAIN EN LAYE <-> MARNE LA VALLEE-BOISSY SAINT LEGER) - Retour,2
2053,Auber,47460,14,1,A,(CERGY-POISSY-SAINT GERMAIN EN LAYE <-> MARNE LA VALLEE-BOISSY SAINT LEGER) - Retour,2
2084,Charles de Gaulle-Etoile,47280,15,1,A,(CERGY-POISSY-SAINT GERMAIN EN LAYE <-> MARNE LA VALLEE-BOISSY SAINT LEGER) - Retour,2
1913,La Défense (Grande Arche),47160,16,1,A,(CERGY-POISSY-SAINT GERMAIN EN LAYE <-> MARNE LA VALLEE-BOISSY SAINT LEGER) - Retour,2
1829,Nanterre-Préfecture,46920,17,1,A,(CERGY-POISSY-SAINT GERMAIN EN LAYE <-> MARNE LA VALLEE-BOISSY SAINT LEGER) - Retour,2
1894,Houilles Carrières-sur-Seine,46680,18,1,A,(CERGY-POISSY-SAINT GERMAIN EN LAYE <-> MARNE LA VALLEE-BOISSY SAINT LEGER) - Retour,2
1643,Sartrouville,46380,19,1,A,(CERGY-POISSY-SAINT GERMAIN EN LAYE <-> MARNE LA VALLEE-BOISSY SAINT LEGER) - Retour,2
1878,Maisons-Laffitte,46200,20,1,A,(CERGY-POISSY-SAINT GERMAIN EN LAYE <-> MARNE LA VALLEE-BOISSY SAINT LEGER) - Retour,2
2039,Achères-Ville,46020,21,1,A,(CERGY-POISSY-SAINT GERMAIN EN LAYE <-> MARNE LA VALLEE-BOISSY SAINT LEGER) - Retour,2
1983,Conflans-Fin d'Oise,45900,22,1,A,(CERGY-POISSY-SAINT GERMAIN EN LAYE <-> MARNE LA VALLEE-BOISSY SAINT LEGER) - Retour,2
48433,Neuville-Université,45780,23,1,A,(CERGY-POISSY-SAINT GERMAIN EN LAYE <-> MARNE LA VALLEE-BOISSY SAINT LEGER) - Retour,2
2021,Cergy-Préfecture,45540,24,1,A,(CERGY-POISSY-SAINT GERMAIN EN LAYE <-> MARNE LA VALLEE-BOISSY SAINT LEGER) - Retour,2
2022,Cergy-Saint-Christophe,45300,25,1,A,(CERGY-POISSY-SAINT GERMAIN EN LAYE <-> MARNE LA VALLEE-BOISSY SAINT LEGER) - Retour,2
48429,Cergy-Le-Haut,45120,26,1,A,(CERGY-POISSY-SAINT GERMAIN EN LAYE <-> MARNE LA VALLEE-BOISSY SAINT LEGER) - Retour,2
1821,Mitry-Claye,20640,1,0,B,(AEROPORT CH.DE GAULLE 2-MITRY CLAYE <-> ROBINSON-SAINT REMY LES CHEVREUSE) - Aller,2
1697,Villeparisis,20880,2,0,B,(AEROPORT CH.DE GAULLE 2-MITRY CLAYE <-> ROBINSON-SAINT REMY LES CHEVREUSE) - Aller,2
1693,Vert-Galant,21060,3,0,B,(AEROPORT CH.DE GAULLE 2-MITRY CLAYE <-> ROBINSON-SAINT REMY LES CHEVREUSE) - Aller,2
1664,Sevran Livry,21240,4,0,B,(AEROPORT CH.DE GAULLE 2-MITRY CLAYE <-> ROBINSON-SAINT REMY LES CHEVREUSE) - Aller,2
2056,Aulnay-sous-Bois,21480,5,0,B,(AEROPORT CH.DE GAULLE 2-MITRY CLAYE <-> ROBINSON-SAINT REMY LES CHEVREUSE) - Aller,2
2070,Blanc-Mesnil,21600,6,0,B,(AEROPORT CH.DE GAULLE 2-MITRY CLAYE <-> ROBINSON-SAINT REMY LES CHEVREUSE) - Aller,2
1999,Drancy,21720,7,0,B,(AEROPORT CH.DE GAULLE 2-MITRY CLAYE <-> ROBINSON-SAINT REMY LES CHEVREUSE) - Aller,2
1923,Le Bourget,21900,8,0,B,(AEROPORT CH.DE GAULLE 2-MITRY CLAYE <-> ROBINSON-SAINT REMY LES CHEVREUSE) - Aller,2
2054,La Courneuve-Aubervilliers,22080,9,0,B,(AEROPORT CH.DE GAULLE 2-MITRY CLAYE <-> ROBINSON-SAINT REMY LES CHEVREUSE) - Aller,2
1918,La Plaine-Stade de France,22260,10,0,B,(AEROPORT CH.DE GAULLE 2-MITRY CLAYE <-> ROBINSON-SAINT REMY LES CHEVREUSE) - Aller,2
2077,Gare du Nord,22620,11,0,B,(AEROPORT CH.DE GAULLE 2-MITRY CLAYE <-> ROBINSON-SAINT REMY LES CHEVREUSE) - Aller,2
1968,Châtelet-Les Halles,22800,12,0,B,(AEROPORT CH.DE GAULLE 2-MITRY CLAYE <-> ROBINSON-SAINT REMY LES CHEVREUSE) - Aller,2
1672,Saint-Michel Notre-Dame,22920,13,0,B,(AEROPORT CH.DE GAULLE 2-MITRY CLAYE <-> ROBINSON-SAINT REMY LES CHEVREUSE) - Aller,2
1866,Luxembourg,23040,14,0,B,(AEROPORT CH.DE GAULLE 2-MITRY CLAYE <-> ROBINSON-SAINT REMY LES CHEVREUSE) - Aller,2
1650,Port-Royal,23160,15,0,B,(AEROPORT CH.DE GAULLE 2-MITRY CLAYE <-> ROBINSON-SAINT REMY LES CHEVREUSE) - Aller,2
1998,Denfert-Rochereau,23280,16,0,B,(AEROPORT CH.DE GAULLE 2-MITRY CLAYE <-> ROBINSON-SAINT REMY LES CHEVREUSE) - Aller,2
1976,Cité Universitaire,23400,17,0,B,(AEROPORT CH.DE GAULLE 2-MITRY CLAYE <-> ROBINSON-SAINT REMY LES CHEVREUSE) - Aller,2
1960,Gentilly,23520,18,0,B,(AEROPORT CH.DE GAULLE 2-MITRY CLAYE <-> ROBINSON-SAINT REMY LES CHEVREUSE) - Aller,2
1921,Laplace,23580,19,0,B,(AEROPORT CH.DE GAULLE 2-MITRY CLAYE <-> ROBINSON-SAINT REMY LES CHEVREUSE) - Aller,2
2047,Arcueil-Cachan,23760,20,0,B,(AEROPORT CH.DE GAULLE 2-MITRY CLAYE <-> ROBINSON-SAINT REMY LES CHEVREUSE) - Aller,2
2059,Bagneux,23820,21,0,B,(AEROPORT CH.DE GAULLE 2-MITRY CLAYE <-> ROBINSON-SAINT REMY LES CHEVREUSE) - Aller,2
2006,Bourg-la-Reine,24000,22,0,B,(AEROPORT CH.DE GAULLE 2-MITRY CLAYE <-> ROBINSON-SAINT REMY LES CHEVREUSE) - Aller,2
1660,Sceaux,24120,23,0,B,(AEROPORT CH.DE GAULLE 2-MITRY CLAYE <-> ROBINSON-SAINT REMY LES CHEVREUSE) - Aller,2
1942,Fontenay-aux-Roses,24240,24,0,B,(AEROPORT CH.DE GAULLE 2-MITRY CLAYE <-> ROBINSON-SAINT REMY LES CHEVREUSE) - Aller,2
1705,Robinson,24420,25,0,B,(AEROPORT CH.DE GAULLE 2-MITRY CLAYE <-> ROBINSON-SAINT REMY LES CHEVREUSE) - Aller,2
1705,Robinson,24420,1,1,B,(AEROPORT CH.DE GAULLE 2-MITRY CLAYE <-> ROBINSON-SAINT REMY LES CHEVREUSE) - Retour,2
1942,Fontenay-aux-Roses,24600,2,1,B,(AEROPORT CH.DE GAULLE 2-MITRY CLAYE <-> ROBINSON-SAINT REMY LES CHEVREUSE) - Retour,2
1660,Sceaux,24720,3,1,B,(AEROPORT CH.DE GAULLE 2-MITRY CLAYE <-> ROBINSON-SAINT REMY LES CHEVREUSE) - Retour,2
2006,Bourg-la-Reine,24840,4,1,B,(AEROPORT CH.DE GAULLE 2-MITRY CLAYE <-> ROBINSON-SAINT REMY LES CHEVREUSE) - Retour,2
2059,Bagneux,25020,5,1,B,(AEROPORT CH.DE GAULLE 2-MITRY CLAYE <-> ROBINSON-SAINT REMY LES CHEVREUSE) - Retour,2
2047,Arcueil-Cachan,25080,6,1,B,(AEROPORT CH.DE GAULLE 2-MITRY CLAYE <-> ROBINSON-SAINT REMY LES CHEVREUSE) - Retour,2
1921,Laplace,25260,7,1,B,(AEROPORT CH.DE GAULLE 2-MITRY CLAYE <-> ROBINSON-SAINT REMY LES CHEVREUSE) - Retour,2
1960,Gentilly,25320,8,1,B,(AEROPORT CH.DE GAULLE 2-MITRY CLAYE <-> ROBINSON-SAINT REMY LES CHEVREUSE) - Retour,2
1976,Cité Universitaire,25440,9,1,B,(AEROPORT CH.DE GAULLE 2-MITRY CLAYE <-> ROBINSON-SAINT REMY LES CHEVREUSE) - Retour,2
1998,Denfert-Rochereau,25560,10,1,B,(AEROPORT CH.DE GAULLE 2-MITRY CLAYE <-> ROBINSON-SAINT REMY LES CHEVREUSE) - Retour,2
1650,Port-Royal,25680,11,1,B,(AEROPORT CH.DE GAULLE 2-MITRY CLAYE <-> ROBINSON-SAINT REMY LES CHEVREUSE) - Retour,2
1866,Luxembourg,25800,12,1,B,(AEROPORT CH.DE GAULLE 2-MITRY CLAYE <-> ROBINSON-SAINT REMY LES CHEVREUSE) - Retour,2
1672,Saint-Michel Notre-Dame,25920,13,1,B,(AEROPORT CH.DE GAULLE 2-MITRY CLAYE <-> ROBINSON-SAINT REMY LES CHEVREUSE) - Retour,2
1968,Châtelet-Les Halles,26040,14,1,B,(AEROPORT CH.DE GAULLE 2-MITRY CLAYE <-> ROBINSON-SAINT REMY LES CHEVREUSE) - Retour,2
2077,Gare du Nord,26220,15,1,B,(AEROPORT CH.DE GAULLE 2-MITRY CLAYE <-> ROBINSON-SAINT REMY LES CHEVREUSE) - Retour,2
1918,La Plaine-Stade de France,26580,16,1,B,(AEROPORT CH.DE GAULLE 2-MITRY CLAYE <-> ROBINSON-SAINT REMY LES CHEVREUSE) - Retour,2
2054,La Courneuve-Aubervilliers,26760,17,1,B,(AEROPORT CH.DE GAULLE 2-MITRY CLAYE <-> ROBINSON-SAINT REMY LES CHEVREUSE) - Retour,2
1923,Le Bourget,26940,18,1,B,(AEROPORT CH.DE GAULLE 2-MITRY CLAYE <-> ROBINSON-SAINT REMY LES CHEVREUSE) - Retour,2
1999,Drancy,27120,19,1,B,(AEROPORT CH.DE GAULLE 2-MITRY CLAYE <-> ROBINSON-SAINT REMY LES CHEVREUSE) - Retour,2
2070,Blanc-Mesnil,27240,20,1,B,(AEROPORT CH.DE GAULLE 2-MITRY CLAYE <-> ROBINSON-SAINT REMY LES CHEVREUSE) - Retour,2
2056,Aulnay-sous-Bois,27360,21,1,B,(AEROPORT CH.DE GAULLE 2-MITRY CLAYE <-> ROBINSON-SAINT REMY LES CHEVREUSE) - Retour,2
1664,Sevran Livry,27600,22,1,B,(AEROPORT CH.DE GAULLE 2-MITRY CLAYE <-> ROBINSON-SAINT REMY LES CHEVREUSE) - Retour,2
1693,Vert-Galant,27780,23,1,B,(AEROPORT CH.DE GAULLE 2-MITRY CLAYE <-> ROBINSON-SAINT REMY LES CHEVREUSE) - Retour,2
1697,Villeparisis,27960,24,1,B,(AEROPORT CH.DE GAULLE 2-MITRY CLAYE <-> ROBINSON-SAINT REMY LES CHEVREUSE) - Retour,2
1821,Mitry-Claye,28200,25,1,B,(AEROPORT CH.DE GAULLE 2-MITRY CLAYE <-> ROBINSON-SAINT REMY LES CHEVREUSE) - Retour,2
48431,Aéroport Charles de Gaulle 2 TGV,21000,1,0,B,(AEROPORT CH.DE GAULLE 2-MITRY CLAYE <-> ROBINSON-SAINT REMY LES CHEVREUSE) - Aller,2
1706,Aéroport Charles de Gaulle 1,21180,2,0,B,(AEROPORT CH.DE GAULLE 2-MITRY CLAYE <-> ROBINSON-SAINT REMY LES CHEVREUSE) - Aller,2
1777,Parc des Expositions,21480,3,0,B,(AEROPORT CH.DE GAULLE 2-MITRY CLAYE <-> ROBINSON-SAINT REMY LES CHEVREUSE) - Aller,2
1628,Villepinte,21600,4,0,B,(AEROPORT CH.DE GAULLE 2-MITRY CLAYE <-> ROBINSON-SAINT REMY LES CHEVREUSE) - Aller,2
1663,Sevran-Beaudottes,21780,5,0,B,(AEROPORT CH.DE GAULLE 2-MITRY CLAYE <-> ROBINSON-SAINT REMY LES CHEVREUSE) - Aller,2
2056,Aulnay-sous-Bois,22020,6,0,B,(AEROPORT CH.DE GAULLE 2-MITRY CLAYE <-> ROBINSON-SAINT REMY LES CHEVREUSE) - Aller,2
2070,Blanc-Mesnil,22140,7,0,B,(AEROPORT CH.DE GAULLE 2-MITRY CLAYE <-> ROBINSON-SAINT REMY LES CHEVREUSE) - Aller,2
1999,Drancy,22260,8,0,B,(AEROPORT CH.DE GAULLE 2-MITRY CLAYE <-> ROBINSON-SAINT REMY LES CHEVREUSE) - Aller,2
1923,Le Bourget,22440,9,0,B,(AEROPORT CH.DE GAULLE 2-MITRY CLAYE <-> ROBINSON-SAINT REMY LES CHEVREUSE) - Aller,2
2054,La Courneuve-Aubervilliers,22620,10,0,B,(AEROPORT CH.DE GAULLE 2-MITRY CLAYE <-> ROBINSON-SAINT REMY LES CHEVREUSE) - Aller,2
1918,La Plaine-Stade de France,22800,11,0,B,(AEROPORT CH.DE GAULLE 2-MITRY CLAYE <-> ROBINSON-SAINT REMY LES CHEVREUSE) - Aller,2
2077,Gare du Nord,23160,12,0,B,(AEROPORT CH.DE GAULLE 2-MITRY CLAYE <-> ROBINSON-SAINT REMY LES CHEVREUSE) - Aller,2
1968,Châtelet-Les Halles,23340,13,0,B,(AEROPORT CH.DE GAULLE 2-MITRY CLAYE <-> ROBINSON-SAINT REMY LES CHEVREUSE) - Aller,2
1672,Saint-Michel Notre-Dame,23460,14,0,B,(AEROPORT CH.DE GAULLE 2-MITRY CLAYE <-> ROBINSON-SAINT REMY LES CHEVREUSE) - Aller,2
1866,Luxembourg,23580,15,0,B,(AEROPORT CH.DE GAULLE 2-MITRY CLAYE <-> ROBINSON-SAINT REMY LES CHEVREUSE) - Aller,2
1650,Port-Royal,23700,16,0,B,(AEROPORT CH.DE GAULLE 2-MITRY CLAYE <-> ROBINSON-SAINT REMY LES CHEVREUSE) - Aller,2
1998,Denfert-Rochereau,23820,17,0,B,(AEROPORT CH.DE GAULLE 2-MITRY CLAYE <-> ROBINSON-SAINT REMY LES CHEVREUSE) - Aller,2
1976,Cité Universitaire,23940,18,0,B,(AEROPORT CH.DE GAULLE 2-MITRY CLAYE <-> ROBINSON-SAINT REMY LES CHEVREUSE) - Aller,2
1960,Gentilly,24060,19,0,B,(AEROPORT CH.DE GAULLE 2-MITRY CLAYE <-> ROBINSON-SAINT REMY LES CHEVREUSE) - Aller,2
1921,Laplace,24120,20,0,B,(AEROPORT CH.DE GAULLE 2-MITRY CLAYE <-> ROBINSON-SAINT REMY LES CHEVREUSE) - Aller,2
2047,Arcueil-Cachan,24300,21,0,B,(AEROPORT CH.DE GAULLE 2-MITRY CLAYE <-> ROBINSON-SAINT REMY LES CHEVREUSE) - Aller,2
2059,Bagneux,24360,22,0,B,(AEROPORT CH.DE GAULLE 2-MITRY CLAYE <-> ROBINSON-SAINT REMY LES CHEVREUSE) - Aller,2
2006,Bourg-la-Reine,24540,23,0,B,(AEROPORT CH.DE GAULLE 2-MITRY CLAYE <-> ROBINSON-SAINT REMY LES CHEVREUSE) - Aller,2
1778,Parc de Sceaux,24660,24,0,B,(AEROPORT CH.DE GAULLE 2-MITRY CLAYE <-> ROBINSON-SAINT REMY LES CHEVREUSE) - Aller,2
1912,La Croix-de-Berny,24720,25,0,B,(AEROPORT CH.DE GAULLE 2-MITRY CLAYE <-> ROBINSON-SAINT REMY LES CHEVREUSE) - Aller,2
2045,Antony,24840,26,0,B,(AEROPORT CH.DE GAULLE 2-MITRY CLAYE <-> ROBINSON-SAINT REMY LES CHEVREUSE) - Aller,2
1941,Fontaine-Michalon,24960,27,0,B,(AEROPORT CH.DE GAULLE 2-MITRY CLAYE <-> ROBINSON-SAINT REMY LES CHEVREUSE) - Aller,2
1853,Les Baconnets,25020,28,0,B,(AEROPORT CH.DE GAULLE 2-MITRY CLAYE <-> ROBINSON-SAINT REMY LES CHEVREUSE) - Aller,2
1810,Massy-Verrières,25140,29,0,B,(AEROPORT CH.DE GAULLE 2-MITRY CLAYE <-> ROBINSON-SAINT REMY LES CHEVREUSE) - Aller,2
1809,Massy-Palaiseau,25320,30,0,B,(AEROPORT CH.DE GAULLE 2-MITRY CLAYE <-> ROBINSON-SAINT REMY LES CHEVREUSE) - Aller,2
9999993,Palaiseau,25500,31,0,B,(AEROPORT CH.DE GAULLE 2-MITRY CLAYE <-> ROBINSON-SAINT REMY LES CHEVREUSE) - Aller,2
9999992,Palaiseau-Villebon,25560,32,0,B,(AEROPORT CH.DE GAULLE 2-MITRY CLAYE <-> ROBINSON-SAINT REMY LES CHEVREUSE) - Aller,2
9999991,Lozère,25740,33,0,B,(AEROPORT CH.DE GAULLE 2-MITRY CLAYE <-> ROBINSON-SAINT REMY LES CHEVREUSE) - Aller,2
9999990,Le Guichet,25860,34,0,B,(AEROPORT CH.DE GAULLE 2-MITRY CLAYE <-> ROBINSON-SAINT REMY LES CHEVREUSE) - Aller,2
9999989,Orsay-Ville,25920,35,0,B,(AEROPORT CH.DE GAULLE 2-MITRY CLAYE <-> ROBINSON-SAINT REMY LES CHEVREUSE) - Aller,2
9999988,Bures-sur-Yvette,26040,36,0,B,(AEROPORT CH.DE GAULLE 2-MITRY CLAYE <-> ROBINSON-SAINT REMY LES CHEVREUSE) - Aller,2
9999987,La Hacquinière,26160,37,0,B,(AEROPORT CH.DE GAULLE 2-MITRY CLAYE <-> ROBINSON-SAINT REMY LES CHEVREUSE) - Aller,2
9999986,Gif-sur-Yvette,26220,38,0,B,(AEROPORT CH.DE GAULLE 2-MITRY CLAYE <-> ROBINSON-SAINT REMY LES CHEVREUSE) - Aller,2
9999985,Courcelle-sur-Yvette,26340,39,0,B,(AEROPORT CH.DE GAULLE 2-MITRY CLAYE <-> ROBINSON-SAINT REMY LES CHEVREUSE) - Aller,2
9999984,Saint-Rémy Iès-Chevreuse,26520,40,0,B,(AEROPORT CH.DE GAULLE 2-MITRY CLAYE <-> ROBINSON-SAINT REMY LES CHEVREUSE) - Aller,2
9999984,Saint-Rémy Iès-Chevreuse,26520,1,1,B,(AEROPORT CH.DE GAULLE 2-MITRY CLAYE <-> ROBINSON-SAINT REMY LES CHEVREUSE) - Retour,2
9999985,Courcelle-sur-Yvette,26700,2,1,B,(AEROPORT CH.DE GAULLE 2-MITRY CLAYE <-> ROBINSON-SAINT REMY LES CHEVREUSE) - Retour,2
9999986,Gif-sur-Yvette,26820,3,1,B,(AEROPORT CH.DE GAULLE 2-MITRY CLAYE <-> ROBINSON-SAINT REMY LES CHEVREUSE) - Retour,2
9999987,La Hacquinière,26880,4,1,B,(AEROPORT CH.DE GAULLE 2-MITRY CLAYE <-> ROBINSON-SAINT REMY LES CHEVREUSE) - Retour,2
9999988,Bures-sur-Yvette,27000,5,1,B,(AEROPORT CH.DE GAULLE 2-MITRY CLAYE <-> ROBINSON-SAINT REMY LES CHEVREUSE) - Retour,2
9999989,Orsay-Ville,27120,6,1,B,(AEROPORT CH.DE GAULLE 2-MITRY CLAYE <-> ROBINSON-SAINT REMY LES CHEVREUSE) - Retour,2
9999990,Le Guichet,27180,7,1,B,(AEROPORT CH.DE GAULLE 2-MITRY CLAYE <-> ROBINSON-SAINT REMY LES CHEVREUSE) - Retour,2
9999991,Lozère,27300,8,1,B,(AEROPORT CH.DE GAULLE 2-MITRY CLAYE <-> ROBINSON-SAINT REMY LES CHEVREUSE) - Retour,2
9999992,Palaiseau-Villebon,27480,9,1,B,(AEROPORT CH.DE GAULLE 2-MITRY CLAYE <-> ROBINSON-SAINT REMY LES CHEVREUSE) - Retour,2
9999993,Palaiseau,27540,10,1,B,(AEROPORT CH.DE GAULLE 2-MITRY CLAYE <-> ROBINSON-SAINT REMY LES CHEVREUSE) - Retour,2
1809,Massy-Palaiseau,27720,11,1,B,(AEROPORT CH.DE GAULLE 2-MITRY CLAYE <-> ROBINSON-SAINT REMY LES CHEVREUSE) - Retour,2
1810,Massy-Verrières,27900,12,1,B,(AEROPORT CH.DE GAULLE 2-MITRY CLAYE <-> ROBINSON-SAINT REMY LES CHEVREUSE) - Retour,2
1853,Les Baconnets,28020,13,1,B,(AEROPORT CH.DE GAULLE 2-MITRY CLAYE <-> ROBINSON-SAINT REMY LES CHEVREUSE) - Retour,2
1941,Fontaine-Michalon,28080,14,1,B,(AEROPORT CH.DE GAULLE 2-MITRY CLAYE <-> ROBINSON-SAINT REMY LES CHEVREUSE) - Retour,2
2045,Antony,28200,15,1,B,(AEROPORT CH.DE GAULLE 2-MITRY CLAYE <-> ROBINSON-SAINT REMY LES CHEVREUSE) - Retour,2
1912,La Croix-de-Berny,28320,16,1,B,(AEROPORT CH.DE GAULLE 2-MITRY CLAYE <-> ROBINSON-SAINT REMY LES CHEVREUSE) - Retour,2
1778,Parc de Sceaux,28380,17,1,B,(AEROPORT CH.DE GAULLE 2-MITRY CLAYE <-> ROBINSON-SAINT REMY LES CHEVREUSE) - Retour,2
2006,Bourg-la-Reine,28500,18,1,B,(AEROPORT CH.DE GAULLE 2-MITRY CLAYE <-> ROBINSON-SAINT REMY LES CHEVREUSE) - Retour,2
2059,Bagneux,28680,19,1,B,(AEROPORT CH.DE GAULLE 2-MITRY CLAYE <-> ROBINSON-SAINT REMY LES CHEVREUSE) - Retour,2
2047,Arcueil-Cachan,28740,20,1,B,(AEROPORT CH.DE GAULLE 2-MITRY CLAYE <-> ROBINSON-SAINT REMY LES CHEVREUSE) - Retour,2
1921,Laplace,28920,21,1,B,(AEROPORT CH.DE GAULLE 2-MITRY CLAYE <-> ROBINSON-SAINT REMY LES CHEVREUSE) - Retour,2
1960,Gentilly,28980,22,1,B,(AEROPORT CH.DE GAULLE 2-MITRY CLAYE <-> ROBINSON-SAINT REMY LES CHEVREUSE) - Retour,2
1976,Cité Universitaire,29100,23,1,B,(AEROPORT CH.DE GAULLE 2-MITRY CLAYE <-> ROBINSON-SAINT REMY LES CHEVREUSE) - Retour,2
1998,Denfert-Rochereau,29220,24,1,B,(AEROPORT CH.DE GAULLE 2-MITRY CLAYE <-> ROBINSON-SAINT REMY LES CHEVREUSE) - Retour,2
1650,Port-Royal,29340,25,1,B,(AEROPORT CH.DE GAULLE 2-MITRY CLAYE <-> ROBINSON-SAINT REMY LES CHEVREUSE) - Retour,2
1866,Luxembourg,29460,26,1,B,(AEROPORT CH.DE GAULLE 2-MITRY CLAYE <-> ROBINSON-SAINT REMY LES CHEVREUSE) - Retour,2
1672,Saint-Michel Notre-Dame,29580,27,1,B,(AEROPORT CH.DE GAULLE 2-MITRY CLAYE <-> ROBINSON-SAINT REMY LES CHEVREUSE) - Retour,2
1968,Châtelet-Les Halles,29700,28,1,B,(AEROPORT CH.DE GAULLE 2-MITRY CLAYE <-> ROBINSON-SAINT REMY LES CHEVREUSE) - Retour,2
2077,Gare du Nord,29880,29,1,B,(AEROPORT CH.DE GAULLE 2-MITRY CLAYE <-> ROBINSON-SAINT REMY LES CHEVREUSE) - Retour,2
1918,La Plaine-Stade de France,30240,30,1,B,(AEROPORT CH.DE GAULLE 2-MITRY CLAYE <-> ROBINSON-SAINT REMY LES CHEVREUSE) - Retour,2
2054,La Courneuve-Aubervilliers,30420,31,1,B,(AEROPORT CH.DE GAULLE 2-MITRY CLAYE <-> ROBINSON-SAINT REMY LES CHEVREUSE) - Retour,2
1923,Le Bourget,30600,32,1,B,(AEROPORT CH.DE GAULLE 2-MITRY CLAYE <-> ROBINSON-SAINT REMY LES CHEVREUSE) - Retour,2
1999,Drancy,30780,33,1,B,(AEROPORT CH.DE GAULLE 2-MITRY CLAYE <-> ROBINSON-SAINT REMY LES CHEVREUSE) - Retour,2
2070,Blanc-Mesnil,30900,34,1,B,(AEROPORT CH.DE GAULLE 2-MITRY CLAYE <-> ROBINSON-SAINT REMY LES CHEVREUSE) - Retour,2
2056,Aulnay-sous-Bois,31020,35,1,B,(AEROPORT CH.DE GAULLE 2-MITRY CLAYE <-> ROBINSON-SAINT REMY LES CHEVREUSE) - Retour,2
1663,Sevran-Beaudottes,31260,36,1,B,(AEROPORT CH.DE GAULLE 2-MITRY CLAYE <-> ROBINSON-SAINT REMY LES CHEVREUSE) - Retour,2
1628,Villepinte,31440,37,1,B,(AEROPORT CH.DE GAULLE 2-MITRY CLAYE <-> ROBINSON-SAINT REMY LES CHEVREUSE) - Retour,2
1777,Parc des Expositions,31560,38,1,B,(AEROPORT CH.DE GAULLE 2-MITRY CLAYE <-> ROBINSON-SAINT REMY LES CHEVREUSE) - Retour,2
1706,Aéroport Charles de Gaulle 1,31860,39,1,B,(AEROPORT CH.DE GAULLE 2-MITRY CLAYE <-> ROBINSON-SAINT REMY LES CHEVREUSE) - Retour,2
48431,Aéroport Charles de Gaulle 2 TGV,32040,40,1,B,(AEROPORT CH.DE GAULLE 2-MITRY CLAYE <-> ROBINSON-SAINT REMY LES CHEVREUSE) - Retour,2
